[{"name":"Joost","category_code":"games_video","total_money_raised":"$45M","description":"","address1":"100 5th Ave Fl 6","address2":"","zip_code":"10011-6903","city":"New York","state_code":"NY","country_code":"USA","latitude":40.7464969,"longitude":-74.0094471,"geopoint":{"type":"Point","coordinates":[-74.0094471,40.7464969]}},{"name":"Mahalo","category_code":"web","total_money_raised":"$21M","description":"","address1":"3525 Eastham Dr.","address2":"","zip_code":"90232","city":"Culver City","state_code":"CA","country_code":"USA","latitude":34.017606,"longitude":-118.487267,"geopoint":{"type":"Point","coordinates":[-118.487267,34.017606]}},{"name":"Thoof","category_code":"web","total_money_raised":"$1M","description":null,"address1":null,"address2":null,"zip_code":null,"city":"Austin","state_code":"TX","country_code":"USA","latitude":30.268735,"longitude":-97.745209,"geopoint":{"type":"Point","coordinates":[-97.745209,30.268735]}},{"name":"Jangl SMS","category_code":"web","total_money_raised":"$9M","description":"","address1":"6601 Owens Dr # 240","address2":"","zip_code":"94588","city":"Pleasanton","state_code":"CA","country_code":"USA","latitude":37.697805,"longitude":-121.907768,"geopoint":{"type":"Point","coordinates":[-121.907768,37.697805]}},{"name":"Jajah","category_code":"mobile","total_money_raised":"$33M","description":"Jajah HQ","address1":"2513 Charleston Road","address2":"Suite 102","zip_code":"94043","city":"Mountain View","state_code":"CA","country_code":"USA","latitude":37.4233896,"longitude":-122.0899512,"geopoint":{"type":"Point","coordinates":[-122.0899512,37.4233896]}},{"name":"blogTV","category_code":"games_video","total_money_raised":"$3M","description":"Headquarters","address1":"30 Ben Gurion St.","address2":"","zip_code":"52573","city":"Ramat Gan","state_code":null,"country_code":"ISR","latitude":31.046051,"longitude":34.851612,"geopoint":{"type":"Point","coordinates":[34.851612,31.046051]}},{"name":"AdaptiveBlue","category_code":"games_video","total_money_raised":"$24M","description":"","address1":"131 Varick St","address2":"","zip_code":"10013","city":"NYC","state_code":"NY","country_code":"USA","latitude":40.801358,"longitude":-74.3372,"geopoint":{"type":"Point","coordinates":[-74.3372,40.801358]}},{"name":"GrandCentral","category_code":"mobile","total_money_raised":"$4M","description":null,"address1":"48389 Fremont Blvd., Suite #110","address2":null,"zip_code":"94538","city":"Fremont","state_code":"CA","country_code":"USA","latitude":37.465645,"longitude":-121.932202,"geopoint":{"type":"Point","coordinates":[-121.932202,37.465645]}},{"name":"Revision3","category_code":"games_video","total_money_raised":"$9M","description":"HQ","address1":"2415 3rd St","address2":"","zip_code":"94107","city":"San Francisco","state_code":"CA","country_code":"USA","latitude":37.757758,"longitude":-122.388243,"geopoint":{"type":"Point","coordinates":[-122.388243,37.757758]}},{"name":"SellABand","category_code":"games_video","total_money_raised":"$5M","description":null,"address1":"Harderhook 22","address2":null,"zip_code":null,"city":"46395 Bocholt","state_code":null,"country_code":"DEU","latitude":51.808933,"longitude":6.553452,"geopoint":{"type":"Point","coordinates":[6.553452,51.808933]}},{"name":"Funny Or Die","category_code":"games_video","total_money_raised":"$18M","description":"Head Quarters","address1":"167 2nd Ave","address2":"","zip_code":"94401","city":"San Mateo","state_code":"CA","country_code":"USA","latitude":37.421621,"longitude":-122.137444,"geopoint":{"type":"Point","coordinates":[-122.137444,37.421621]}},{"name":"Zlio","category_code":"ecommerce","total_money_raised":"$4M","description":"","address1":"55 rue Servan","address2":"","zip_code":"75011","city":"Paris","state_code":null,"country_code":"FRA","latitude":48.862825,"longitude":2.381836,"geopoint":{"type":"Point","coordinates":[2.381836,48.862825]}},{"name":"Wakoopa","category_code":"web","total_money_raised":"$1M","description":"Arts & Crafts","address1":"Damrak 70, 254","address2":"","zip_code":"1012LM","city":"Amsterdam","state_code":null,"country_code":"NLD","latitude":52.3745228,"longitude":4.8948623,"geopoint":{"type":"Point","coordinates":[4.8948623,52.3745228]}},{"name":"RockYou","category_code":"games_video","total_money_raised":"$136M","description":"","address1":"585 Broadway","address2":"Suite A","zip_code":"94063","city":"Redwood City","state_code":"CA","country_code":"USA","latitude":37.484619,"longitude":-122.206893,"geopoint":{"type":"Point","coordinates":[-122.206893,37.484619]}},{"name":"Netvibes","category_code":"web","total_money_raised":"$16M","description":"Paris","address1":"114, rue Cardinet","address2":"","zip_code":"75017","city":"Paris","state_code":null,"country_code":"FRA","latitude":48.870806,"longitude":2.34668,"geopoint":{"type":"Point","coordinates":[2.34668,48.870806]}},{"name":"Netvibes","category_code":"web","total_money_raised":"$16M","description":"San Francisco","address1":"49 Geary","address2":"Suite 234","zip_code":"94108","city":"San Francisco","state_code":"CA","country_code":"USA","latitude":null,"longitude":null,"geopoint":null},{"name":"Bebo","category_code":"web","total_money_raised":"$15M","description":"","address1":"425 Bush Street","address2":"Suite 200","zip_code":"94108","city":"San Francisco","state_code":"CA","country_code":"USA","latitude":37.782103,"longitude":-122.401116,"geopoint":{"type":"Point","coordinates":[-122.401116,37.782103]}},{"name":"WeFi","category_code":"mobile","total_money_raised":"$10M","description":null,"address1":"12587 Fair Lakes Circle","address2":"Suite 252","zip_code":"22033","city":"Fairfax","state_code":"VA","country_code":"USA","latitude":37.09024,"longitude":-95.712891,"geopoint":{"type":"Point","coordinates":[-95.712891,37.09024]}},{"name":"TheFind","category_code":"ecommerce","total_money_raised":"$26M","description":"","address1":"310 Villa Street","address2":"","zip_code":"94041","city":"Mountain View","state_code":"CA","country_code":"USA","latitude":37.391502,"longitude":-122.073463,"geopoint":{"type":"Point","coordinates":[-122.073463,37.391502]}},{"name":"Meebo","category_code":"web","total_money_raised":"$70M","description":"Headquarters","address1":"215 Castro Street","address2":"3rd Floor","zip_code":"94041","city":"Mountain View","state_code":"CA","country_code":"USA","latitude":37.393679,"longitude":-122.079017,"geopoint":{"type":"Point","coordinates":[-122.079017,37.393679]}},{"name":"Meebo","category_code":"web","total_money_raised":"$70M","description":"San Francisco","address1":"101 New Montgomery Street, 5th Floor","address2":"","zip_code":"94105","city":"San Francisco","state_code":"CA","country_code":"USA","latitude":null,"longitude":null,"geopoint":null},{"name":"Meebo","category_code":"web","total_money_raised":"$70M","description":"Los Angeles","address1":"2525 Main Street, Suite 107","address2":"","zip_code":"90405","city":"Santa Monica","state_code":"CA","country_code":"USA","latitude":null,"longitude":null,"geopoint":null},{"name":"Meebo","category_code":"web","total_money_raised":"$70M","description":"New York","address1":"45 E. 20th Street, 12th Floor","address2":"","zip_code":"10003","city":"New York","state_code":"NY","country_code":"USA","latitude":null,"longitude":null,"geopoint":null},{"name":"Meebo","category_code":"web","total_money_raised":"$70M","description":"Chicago","address1":"311 W. Superior Street, Suite 209","address2":"","zip_code":"60654","city":"Chicago","state_code":"IL","country_code":"USA","latitude":null,"longitude":null,"geopoint":null},{"name":"Eventbrite","category_code":"web","total_money_raised":"$140M","description":"HQ","address1":"651 Brannan","address2":"Suite 110","zip_code":"94107","city":"San Francisco","state_code":"CA","country_code":"USA","latitude":37.779507,"longitude":-122.39071,"geopoint":{"type":"Point","coordinates":[-122.39071,37.779507]}},{"name":"Terabitz","category_code":"web","total_money_raised":"$10M","description":"HQ","address1":"5 Palo Alto Sq Ste 220","address2":"","zip_code":"94306-2123","city":"Palo Alto","state_code":"CA","country_code":"USA","latitude":37.437328,"longitude":-122.159928,"geopoint":{"type":"Point","coordinates":[-122.159928,37.437328]}},{"name":"Box","category_code":"network_hosting","total_money_raised":"$409M","description":"HQ","address1":"4440 El Camino Real","address2":"","zip_code":"94022","city":"Los Altos","state_code":"CA","country_code":"USA","latitude":37.425801,"longitude":-122.143701,"geopoint":{"type":"Point","coordinates":[-122.143701,37.425801]}},{"name":"Carbonite","category_code":"network_hosting","total_money_raised":"$66M","description":"Headquarters","address1":"","address2":"","zip_code":"02116","city":"Boston","state_code":"MA","country_code":"USA","latitude":42.350571,"longitude":-71.076869,"geopoint":{"type":"Point","coordinates":[-71.076869,42.350571]}},{"name":"Kaboodle","category_code":"ecommerce","total_money_raised":"$5M","description":"","address1":"640 W. California Ave.","address2":"Suite 220","zip_code":"94041","city":"Sunnyvale","state_code":"CA","country_code":"USA","latitude":37.382162,"longitude":-122.036301,"geopoint":{"type":"Point","coordinates":[-122.036301,37.382162]}},{"name":"Hotelicopter","category_code":"web","total_money_raised":"$5M","description":"","address1":"103 W. Main Street","address2":"","zip_code":"22902","city":"Charlottesville","state_code":"VA","country_code":"USA","latitude":38.030823,"longitude":-78.48158,"geopoint":{"type":"Point","coordinates":[-78.48158,38.030823]}},{"name":"Seesmic","category_code":"web","total_money_raised":"$16M","description":"","address1":"1550 Bryant Street","address2":"Suite 890","zip_code":"94103","city":"San Francisco","state_code":"CA","country_code":"USA","latitude":37.775196,"longitude":-122.419204,"geopoint":{"type":"Point","coordinates":[-122.419204,37.775196]}},{"name":"oDesk","category_code":"web","total_money_raised":"$44M","description":"","address1":"901 Marshall Street","address2":"Suite 200","zip_code":"94063","city":"Redwood City","state_code":"CA","country_code":"USA","latitude":37.479952,"longitude":-122.178557,"geopoint":{"type":"Point","coordinates":[-122.178557,37.479952]}},{"name":"Bazaarvoice","category_code":"software","total_money_raised":"$131M","description":"Head Office","address1":"3900 N Capital of Texas Hwy","address2":"","zip_code":"78746","city":"Austin","state_code":"TX","country_code":"USA","latitude":30.407545,"longitude":-97.717667,"geopoint":{"type":"Point","coordinates":[-97.717667,30.407545]}},{"name":"Curse","category_code":"games_video","total_money_raised":"$12M","description":"San Francisco","address1":"60 Broadway","address2":"","zip_code":"94111","city":"San Francisco","state_code":"CA","country_code":"USA","latitude":37.787092,"longitude":-122.399972,"geopoint":{"type":"Point","coordinates":[-122.399972,37.787092]}},{"name":"Curse","category_code":"games_video","total_money_raised":"$12M","description":"Huntsville","address1":"150 West Park Loop NW","address2":"","zip_code":"35806","city":"Huntsville","state_code":"AL","country_code":"USA","latitude":null,"longitude":null,"geopoint":null},{"name":"Vuze","category_code":"games_video","total_money_raised":"$34M","description":"Headquarters","address1":"4 W. 4th Ave","address2":"","zip_code":"94402","city":"San Mateo","state_code":"CA","country_code":"USA","latitude":37.4858654,"longitude":-122.2262606,"geopoint":{"type":"Point","coordinates":[-122.2262606,37.4858654]}},{"name":"NowPublic","category_code":"web","total_money_raised":"$12M","description":"","address1":"576 Seymour Street","address2":"Suite 204","zip_code":"","city":"Vancouver","state_code":null,"country_code":"CAN","latitude":49.283376,"longitude":-123.103986,"geopoint":{"type":"Point","coordinates":[-123.103986,49.283376]}},{"name":"Rebtel","category_code":"mobile","total_money_raised":"$20M","description":"Headquarters","address1":"Fabrikorvagen 4","address2":"","zip_code":"131 52","city":"Nacka Strand","state_code":null,"country_code":"SWE","latitude":59.3167843,"longitude":18.1582777,"geopoint":{"type":"Point","coordinates":[18.1582777,59.3167843]}},{"name":"Nimbuzz","category_code":"mobile","total_money_raised":"$25M","description":"Nimbuzz Netherlands","address1":"301 Rivium Boulevard","address2":"","zip_code":"2909 LK","city":"Capelle a\/d IJssel","state_code":null,"country_code":"NLD","latitude":51.9122575,"longitude":4.5464658,"geopoint":{"type":"Point","coordinates":[4.5464658,51.9122575]}},{"name":"Nimbuzz","category_code":"mobile","total_money_raised":"$25M","description":"Nimbuzz India","address1":"5th Floor, Vatika Business Park","address2":"Sohna Road, Sector 49 Gurgaon","zip_code":"","city":"Gurgaon","state_code":null,"country_code":"IND","latitude":null,"longitude":null,"geopoint":null},{"name":"obopay","category_code":"mobile","total_money_raised":"$145M","description":"","address1":"275 Shoreline Drive","address2":"Suite 400","zip_code":"","city":"Redwood City","state_code":"CA","country_code":"USA","latitude":37.524729,"longitude":-122.258037,"geopoint":{"type":"Point","coordinates":[-122.258037,37.524729]}},{"name":"PermissionTV","category_code":"games_video","total_money_raised":"$9M","description":null,"address1":"1601 Trapelo Road, Suite 168","address2":null,"zip_code":"02451","city":"Waltham","state_code":"MA","country_code":"USA","latitude":42.417268,"longitude":-71.258466,"geopoint":{"type":"Point","coordinates":[-71.258466,42.417268]}},{"name":"Viagogo","category_code":"ecommerce","total_money_raised":"$65M","description":"","address1":"77 Battery St Fl 4","address2":"","zip_code":"94111-5540","city":"San Francisco","state_code":"CA","country_code":"USA","latitude":51.500152,"longitude":-0.126236,"geopoint":{"type":"Point","coordinates":[-0.126236,51.500152]}},{"name":"Dropbox","category_code":"software","total_money_raised":"$257M","description":"Headquarters","address1":"","address2":"185 Berry St 4th Floor","zip_code":"94107","city":"San Francisco","state_code":"CA","country_code":"USA","latitude":37.7909427,"longitude":-122.4084994,"geopoint":{"type":"Point","coordinates":[-122.4084994,37.7909427]}},{"name":"Dropbox","category_code":"software","total_money_raised":"$257M","description":"EMEA HQ","address1":"Fitzwilliam Hall","address2":"","zip_code":"","city":"Dublin","state_code":null,"country_code":"IRL","latitude":null,"longitude":null,"geopoint":null},{"name":"Kongregate","category_code":"games_video","total_money_raised":"$19M","description":"","address1":"2 Shaw Alley","address2":"4th Floor","zip_code":"94105","city":"San Francisco","state_code":"CA","country_code":"USA","latitude":37.786942,"longitude":-122.401245,"geopoint":{"type":"Point","coordinates":[-122.401245,37.786942]}},{"name":"Yola","category_code":"web","total_money_raised":"$25M","description":"Yola San Francisco","address1":"201 Mission Street","address2":"Suite 2250","zip_code":"94105","city":"San Francisco","state_code":"CA","country_code":"USA","latitude":37.7911148,"longitude":-122.3954751,"geopoint":{"type":"Point","coordinates":[-122.3954751,37.7911148]}},{"name":"Yola","category_code":"web","total_money_raised":"$25M","description":"Cape Town Office","address1":"35 Hope Street","address2":"3rd Floor","zip_code":"8000","city":"Cape Town","state_code":null,"country_code":"ZAF","latitude":null,"longitude":null,"geopoint":null},{"name":"Zivity","category_code":"network_hosting","total_money_raised":"$8M","description":"","address1":"329 Bryant Street","address2":"Suite 2D","zip_code":"94107","city":"San Francisco","state_code":"CA","country_code":"USA","latitude":37.789488,"longitude":-122.397593,"geopoint":{"type":"Point","coordinates":[-122.397593,37.789488]}},{"name":"Docstoc","category_code":"web","total_money_raised":"$4M","description":"","address1":"409 S Santa Monica Blvd","address2":"Suite 2A","zip_code":"90401","city":"Santa Monica","state_code":"CA","country_code":"USA","latitude":34.018275,"longitude":-118.495025,"geopoint":{"type":"Point","coordinates":[-118.495025,34.018275]}},{"name":"Minglebox","category_code":"web","total_money_raised":"$7M","description":null,"address1":null,"address2":null,"zip_code":null,"city":"Bangalore","state_code":null,"country_code":"IND","latitude":12.971606,"longitude":77.594376,"geopoint":{"type":"Point","coordinates":[77.594376,12.971606]}},{"name":"SnapTell","category_code":"software","total_money_raised":"$4M","description":"","address1":"2741 Middlefield Road","address2":"Suite 200","zip_code":"94306","city":"Palo Alto","state_code":"CA","country_code":"USA","latitude":37.433414,"longitude":-122.128772,"geopoint":{"type":"Point","coordinates":[-122.128772,37.433414]}},{"name":"Wonga","category_code":"web","total_money_raised":"$101M","description":"","address1":"88 Crawford Street","address2":"","zip_code":"W1H 2EJ","city":"London","state_code":null,"country_code":"GBR","latitude":51.5192042,"longitude":-0.1626103,"geopoint":{"type":"Point","coordinates":[-0.1626103,51.5192042]}},{"name":"MyHeritage","category_code":"social","total_money_raised":"$49M","description":"","address1":"","address2":"","zip_code":"","city":"Or Yehuda","state_code":null,"country_code":"ISR","latitude":32.029748,"longitude":34.856173,"geopoint":{"type":"Point","coordinates":[34.856173,32.029748]}},{"name":"hulu","category_code":"games_video","total_money_raised":"$100M","description":null,"address1":"12312 W. Olympic Blvd.","address2":null,"zip_code":"90064","city":"Los Angeles","state_code":"CA","country_code":"USA","latitude":34.031276,"longitude":-118.456806,"geopoint":{"type":"Point","coordinates":[-118.456806,34.031276]}},{"name":"Aviary","category_code":"mobile","total_money_raised":"$19M","description":"NYC","address1":"243 West 30th Street","address2":"11th Floor","zip_code":"10001","city":"NY","state_code":"NY","country_code":"USA","latitude":null,"longitude":null,"geopoint":null},{"name":"Viewpoints","category_code":"web","total_money_raised":"$5M","description":"","address1":"222 W. Hubbard Street","address2":"","zip_code":"60610","city":"Chicago","state_code":"IL","country_code":"USA","latitude":41.890376,"longitude":-87.63406,"geopoint":{"type":"Point","coordinates":[-87.63406,41.890376]}},{"name":"ChessPark","category_code":"games_video","total_money_raised":"$1M","description":null,"address1":null,"address2":null,"zip_code":null,"city":"West Palm Beach","state_code":"CA","country_code":"USA","latitude":43.67084,"longitude":-83.913153,"geopoint":{"type":"Point","coordinates":[-83.913153,43.67084]}},{"name":"Eons","category_code":"network_hosting","total_money_raised":"$32M","description":null,"address1":"31 5th Street","address2":null,"zip_code":"02129","city":"Boston","state_code":"MA","country_code":"USA","latitude":42.375219,"longitude":-71.056101,"geopoint":{"type":"Point","coordinates":[-71.056101,42.375219]}},{"name":"GamerDNA","category_code":"web","total_money_raised":"$3M","description":null,"address1":"","address2":"","zip_code":"","city":"Cambridge","state_code":"MA","country_code":"USA","latitude":42.375392,"longitude":-71.118487,"geopoint":{"type":"Point","coordinates":[-71.118487,42.375392]}},{"name":"Fixya","category_code":"web","total_money_raised":"$8M","description":"","address1":"One Franklin Parkway","address2":"Building 910, Suite 110","zip_code":"94401","city":"San Mateo","state_code":"CA","country_code":"USA","latitude":37.566879,"longitude":-122.323895,"geopoint":{"type":"Point","coordinates":[-122.323895,37.566879]}},{"name":"Mobovivo","category_code":"mobile","total_money_raised":"C$1M","description":"Canadian","address1":"1400 700 2nd St SW","address2":"","zip_code":"T2P 4V5","city":"Calgary","state_code":null,"country_code":"CAN","latitude":null,"longitude":null,"geopoint":null},{"name":"MatchMine","category_code":"web","total_money_raised":"$10M","description":null,"address1":"175 Highland Avenue","address2":null,"zip_code":null,"city":"Needham","state_code":"MA","country_code":"USA","latitude":42.304545,"longitude":-71.220187,"geopoint":{"type":"Point","coordinates":[-71.220187,42.304545]}},{"name":"Mobivox","category_code":"mobile","total_money_raised":"$11M","description":null,"address1":"651 Notre-Dame West Suite 550","address2":null,"zip_code":null,"city":"Montreal","state_code":null,"country_code":"CAN","latitude":45.500277,"longitude":-73.560084,"geopoint":{"type":"Point","coordinates":[-73.560084,45.500277]}},{"name":"3Jam","category_code":"mobile","total_money_raised":"$4M","description":"","address1":"365 Vermont St","address2":"Unit B","zip_code":"94103-5060","city":"San Francisco","state_code":"CA","country_code":"USA","latitude":37.765125,"longitude":-122.4044034,"geopoint":{"type":"Point","coordinates":[-122.4044034,37.765125]}},{"name":"FriendFeed","category_code":"web","total_money_raised":"$5M","description":"","address1":"333 W. Evelyn Ave","address2":"","zip_code":"94041","city":"Mountain View","state_code":"CA","country_code":"USA","latitude":37.39248,"longitude":-122.072612,"geopoint":{"type":"Point","coordinates":[-122.072612,37.39248]}},{"name":"Whiskey Media","category_code":"web","total_money_raised":"$4M","description":"HQ","address1":"921 Front St.","address2":"Suite #100","zip_code":"94111","city":"San Francisco","state_code":"CA","country_code":"USA","latitude":37.856331,"longitude":-122.495222,"geopoint":{"type":"Point","coordinates":[-122.495222,37.856331]}},{"name":"RayV","category_code":"games_video","total_money_raised":"$16M","description":null,"address1":"150 West 77, Suite 4","address2":null,"zip_code":null,"city":"New York","state_code":"NY","country_code":"USA","latitude":40.781159,"longitude":-73.978332,"geopoint":{"type":"Point","coordinates":[-73.978332,40.781159]}},{"name":"Tumblr","category_code":"web","total_money_raised":"$125M","description":null,"address1":"419 Park Ave. South, Suite 807","address2":null,"zip_code":"10016","city":"New York","state_code":"NY","country_code":"USA","latitude":40.743808,"longitude":-73.983626,"geopoint":{"type":"Point","coordinates":[-73.983626,40.743808]}},{"name":"Buzzwire","category_code":"mobile","total_money_raised":"$12M","description":"","address1":"925 South Race","address2":"","zip_code":"80209","city":"Denver","state_code":"CO","country_code":"USA","latitude":39.755092,"longitude":-104.988123,"geopoint":{"type":"Point","coordinates":[-104.988123,39.755092]}},{"name":"Gydget","category_code":"web","total_money_raised":"$1M","description":null,"address1":"1 Front Street","address2":null,"zip_code":"94111","city":"San Francisco","state_code":"CA","country_code":"USA","latitude":37.791733,"longitude":-122.398398,"geopoint":{"type":"Point","coordinates":[-122.398398,37.791733]}},{"name":"Zattoo","category_code":"games_video","total_money_raised":"$10M","description":"Zattoo USA","address1":"1327 Jones Dr. Suite 106","address2":"","zip_code":"48105","city":"Ann Arbor","state_code":"MI","country_code":"USA","latitude":42.292649,"longitude":-83.734673,"geopoint":{"type":"Point","coordinates":[-83.734673,42.292649]}},{"name":"Zattoo","category_code":"games_video","total_money_raised":"$10M","description":"Zattoo Europe","address1":"Elias-Canetti-Strasse 7","address2":"","zip_code":"","city":"CH-8050 Z\u00c3\u00bcrich","state_code":null,"country_code":"CHE","latitude":null,"longitude":null,"geopoint":null},{"name":"Songbird","category_code":"mobile","total_money_raised":"$11M","description":"","address1":"2 Shaw Alley","address2":"Second Floor","zip_code":"94105","city":"San Francisco","state_code":"CA","country_code":"USA","latitude":37.787126,"longitude":-122.39783,"geopoint":{"type":"Point","coordinates":[-122.39783,37.787126]}},{"name":"SezWho","category_code":"web","total_money_raised":"$1M","description":null,"address1":"1000 Fremont Avenue, #230","address2":null,"zip_code":"94024","city":"Los Altos","state_code":"CA","country_code":"USA","latitude":37.351894,"longitude":-122.085807,"geopoint":{"type":"Point","coordinates":[-122.085807,37.351894]}},{"name":"Vringo","category_code":"software","total_money_raised":"$37M","description":"HQ","address1":"780 Third Avenue","address2":"Fifteenth Floor","zip_code":"10017","city":"New York","state_code":"NY","country_code":"USA","latitude":40.7550005,"longitude":-73.9717364,"geopoint":{"type":"Point","coordinates":[-73.9717364,40.7550005]}},{"name":"Loopt","category_code":"mobile","total_money_raised":"$32M","description":"HQ","address1":"590 W. El Camino Real","address2":"","zip_code":"94040","city":"Mountain View","state_code":"CA","country_code":"USA","latitude":37.384717,"longitude":-122.081625,"geopoint":{"type":"Point","coordinates":[-122.081625,37.384717]}},{"name":"Zecco","category_code":"web","total_money_raised":"$35M","description":null,"address1":null,"address2":null,"zip_code":null,"city":null,"state_code":null,"country_code":null,"latitude":null,"longitude":null,"geopoint":null},{"name":"Vobile","category_code":"web","total_money_raised":"$10M","description":"Headquarters","address1":"4699 Old Ironsides Drive, Ste 430","address2":"","zip_code":"95054","city":"Santa Clara","state_code":"CA","country_code":"USA","latitude":37.399208,"longitude":-121.97895,"geopoint":{"type":"Point","coordinates":[-121.97895,37.399208]}},{"name":"GameLayers","category_code":"web","total_money_raised":"$2M","description":null,"address1":"1 Lombard Street","address2":"Suite 303","zip_code":"94111","city":"San Francisco","state_code":"CA","country_code":"USA","latitude":37.803847,"longitude":-122.402468,"geopoint":{"type":"Point","coordinates":[-122.402468,37.803847]}},{"name":"Mogreet","category_code":"mobile","total_money_raised":"$14M","description":"Headquarters","address1":"555 Rose Avenue","address2":"Studio G","zip_code":"90291","city":"Venice","state_code":"CA","country_code":"USA","latitude":33.999004,"longitude":-118.472297,"geopoint":{"type":"Point","coordinates":[-118.472297,33.999004]}},{"name":"WEbook","category_code":"web","total_money_raised":"$5M","description":"Business HQ","address1":"307 Fifth Avenue","address2":"Floor 7","zip_code":"10016","city":"New York","state_code":"NY","country_code":"USA","latitude":38.984172,"longitude":-77.095965,"geopoint":{"type":"Point","coordinates":[-77.095965,38.984172]}},{"name":"Hark","category_code":"web","total_money_raised":"$5M","description":"Hark Headquarters","address1":"1620 Broadway","address2":"Suite 209","zip_code":"98122","city":"Seattle","state_code":"WA","country_code":"USA","latitude":null,"longitude":null,"geopoint":null},{"name":"xkoto","category_code":"software","total_money_raised":"$11M","description":"HQ","address1":"275 Wyman Street,","address2":"Suite 130","zip_code":"02451","city":"Waltham","state_code":"MA","country_code":"USA","latitude":42.405685,"longitude":-71.255857,"geopoint":{"type":"Point","coordinates":[-71.255857,42.405685]}},{"name":"betNOW","category_code":"web","total_money_raised":"$5M","description":null,"address1":"14 Garrick Street","address2":null,"zip_code":"WC2E 9SB","city":"London","state_code":null,"country_code":"GBR","latitude":51.511599,"longitude":-0.126389,"geopoint":{"type":"Point","coordinates":[-0.126389,51.511599]}},{"name":"Utterz","category_code":"mobile","total_money_raised":"$4M","description":null,"address1":"63 Great Road","address2":"","zip_code":"01754","city":"Maynard","state_code":"MA","country_code":"USA","latitude":42.431555,"longitude":-71.483077,"geopoint":{"type":"Point","coordinates":[-71.483077,42.431555]}},{"name":"HubSpot","category_code":"software","total_money_raised":"$131M","description":"Headquarters","address1":"25 First St.","address2":"2nd Floor","zip_code":"02141","city":"Cambridge","state_code":"MA","country_code":"USA","latitude":42.375392,"longitude":-71.118487,"geopoint":{"type":"Point","coordinates":[-71.118487,42.375392]}},{"name":"TradeKing","category_code":"web","total_money_raised":"$6M","description":"","address1":"888 E. Las Olas Blvd","address2":"Suite 300","zip_code":"33301","city":"Fort Lauderdale","state_code":"FL","country_code":"USA","latitude":26.119102,"longitude":-80.1343038,"geopoint":{"type":"Point","coordinates":[-80.1343038,26.119102]}},{"name":"CafeMom","category_code":"network_hosting","total_money_raised":"$17M","description":"CafeMom","address1":"401 Park Ave S","address2":"Fl 5","zip_code":"10016-8808","city":"New York","state_code":"NY","country_code":"USA","latitude":37.09024,"longitude":-95.712891,"geopoint":{"type":"Point","coordinates":[-95.712891,37.09024]}},{"name":"BeliefNet","category_code":"web","total_money_raised":"$7M","description":null,"address1":"115 E 23rd Street","address2":null,"zip_code":"10010","city":"New York","state_code":"NY","country_code":"USA","latitude":40.740231,"longitude":-73.985433,"geopoint":{"type":"Point","coordinates":[-73.985433,40.740231]}},{"name":"Kosmix","category_code":"web","total_money_raised":"$55M","description":"","address1":"","address2":"","zip_code":"94041","city":"Mountain View","state_code":"CA","country_code":"USA","latitude":37.3867729,"longitude":-122.0752224,"geopoint":{"type":"Point","coordinates":[-122.0752224,37.3867729]}},{"name":"HubPages","category_code":"web","total_money_raised":"$8M","description":"San Francisco Office","address1":"95 Minna Street","address2":"3rd Floor","zip_code":"94105","city":"San Francisco","state_code":"CA","country_code":"USA","latitude":37.7876952,"longitude":-122.3991505,"geopoint":{"type":"Point","coordinates":[-122.3991505,37.7876952]}},{"name":"Ribbit","category_code":"mobile","total_money_raised":"$11M","description":"HQ","address1":"800 W. El Camino Real","address2":"Suite 250","zip_code":"94040","city":"Mountain View","state_code":"CA","country_code":"USA","latitude":37.386665,"longitude":-122.084171,"geopoint":{"type":"Point","coordinates":[-122.084171,37.386665]}},{"name":"ideeli","category_code":"ecommerce","total_money_raised":"$107M","description":"","address1":"620 8th Ave","address2":"45th Floor","zip_code":"10018","city":"New York","state_code":"NY","country_code":"USA","latitude":40.755978,"longitude":-73.990396,"geopoint":{"type":"Point","coordinates":[-73.990396,40.755978]}},{"name":"WeShow","category_code":"games_video","total_money_raised":"$5M","description":null,"address1":null,"address2":null,"zip_code":"10017","city":"New York","state_code":"NY","country_code":"USA","latitude":40.752516,"longitude":-73.973072,"geopoint":{"type":"Point","coordinates":[-73.973072,40.752516]}},{"name":"Scrapblog","category_code":"web","total_money_raised":"$10M","description":"","address1":"110 Sutter","address2":"Suite 700","zip_code":"94104","city":"San Francisco","state_code":"CA","country_code":"USA","latitude":25.752358,"longitude":-80.25468,"geopoint":{"type":"Point","coordinates":[-80.25468,25.752358]}},{"name":"jellyfish","category_code":"web","total_money_raised":"$5M","description":null,"address1":"1600 Aspen Commons, Suite 950","address2":null,"zip_code":"53562","city":"Middleton","state_code":"WI","country_code":"USA","latitude":null,"longitude":null,"geopoint":null},{"name":"Meraki","category_code":"network_hosting","total_money_raised":"$80M","description":"","address1":"660 Alabama St.","address2":"","zip_code":"94110","city":"San Francisco","state_code":"CA","country_code":"USA","latitude":37.392443,"longitude":-122.072517,"geopoint":{"type":"Point","coordinates":[-122.072517,37.392443]}},{"name":"Studyplaces","category_code":"web","total_money_raised":"$3M","description":"","address1":"","address2":"","zip_code":"","city":"","state_code":"CA","country_code":"USA","latitude":null,"longitude":null,"geopoint":null},{"name":"Zynga","category_code":"games_video","total_money_raised":"$860M","description":"SF HQ","address1":"365 Vermont St.","address2":"","zip_code":"94103","city":"San Francisco","state_code":"CA","country_code":"USA","latitude":37.765158,"longitude":-122.404234,"geopoint":{"type":"Point","coordinates":[-122.404234,37.765158]}},{"name":"Zynga","category_code":"games_video","total_money_raised":"$860M","description":"","address1":"","address2":"","zip_code":"","city":"","state_code":null,"country_code":"IND","latitude":null,"longitude":null,"geopoint":null},{"name":"Zynga","category_code":"games_video","total_money_raised":"$860M","description":"","address1":"","address2":"","zip_code":"","city":"Baltimore","state_code":"MD","country_code":"USA","latitude":null,"longitude":null,"geopoint":null},{"name":"Zynga","category_code":"games_video","total_money_raised":"$860M","description":"","address1":"","address2":"","zip_code":"","city":"Los Angeles","state_code":"CA","country_code":"USA","latitude":null,"longitude":null,"geopoint":null},{"name":"Badoo","category_code":"web","total_money_raised":"C$30M","description":"London Office","address1":"","address2":"","zip_code":"","city":"London","state_code":null,"country_code":"GBR","latitude":null,"longitude":null,"geopoint":null},{"name":"Badoo","category_code":"web","total_money_raised":"C$30M","description":"San Fransisco Office","address1":"","address2":"","zip_code":"","city":"San Fransisco","state_code":"CA","country_code":"USA","latitude":null,"longitude":null,"geopoint":null},{"name":"Badoo","category_code":"web","total_money_raised":"C$30M","description":"Moscow Office","address1":"","address2":"","zip_code":"","city":"Moscow","state_code":null,"country_code":"RUS","latitude":null,"longitude":null,"geopoint":null},{"name":"WorldTV","category_code":"games_video","total_money_raised":"$1M","description":"Irish Office","address1":"","address2":"","zip_code":"","city":"Limerick","state_code":null,"country_code":"IRL","latitude":52.6638571,"longitude":-8.6267726,"geopoint":{"type":"Point","coordinates":[-8.6267726,52.6638571]}},{"name":"WorldTV","category_code":"games_video","total_money_raised":"$1M","description":"London Office","address1":"","address2":"","zip_code":"","city":"London","state_code":null,"country_code":"GBR","latitude":51.5001524,"longitude":-0.1262362,"geopoint":{"type":"Point","coordinates":[-0.1262362,51.5001524]}},{"name":"Sharetivity","category_code":"web","total_money_raised":"$2M","description":"","address1":"530 University Ave","address2":"","zip_code":"94303","city":"Palo Alto","state_code":"CA","country_code":"USA","latitude":37.550954,"longitude":-122.315396,"geopoint":{"type":"Point","coordinates":[-122.315396,37.550954]}},{"name":"First30Days","category_code":"web","total_money_raised":"$5M","description":null,"address1":"1760 Frankfort Avenue","address2":"","zip_code":"40206","city":"Louisville","state_code":"KY","country_code":"USA","latitude":38.257035,"longitude":-85.717393,"geopoint":{"type":"Point","coordinates":[-85.717393,38.257035]}},{"name":"Seatwave","category_code":"ecommerce","total_money_raised":"$53M","description":"","address1":"120 Moorgate","address2":"","zip_code":"EC2M 6UR","city":"London","state_code":null,"country_code":"GBR","latitude":51.500152,"longitude":-0.126236,"geopoint":{"type":"Point","coordinates":[-0.126236,51.500152]}},{"name":"VisualCV","category_code":"web","total_money_raised":"$5M","description":"","address1":"11654 Plaza America Drive","address2":"Suite 636","zip_code":"20190","city":"Reston","state_code":"VA","country_code":"USA","latitude":38.9530391,"longitude":-77.3479238,"geopoint":{"type":"Point","coordinates":[-77.3479238,38.9530391]}},{"name":"b5media","category_code":"web","total_money_raised":"$2M","description":"Head Office","address1":"174 Spadina Ave","address2":"Suite 302","zip_code":"M5T 2C2","city":"Toronto, ON","state_code":null,"country_code":"CAN","latitude":null,"longitude":null,"geopoint":null},{"name":"b5media","category_code":"web","total_money_raised":"$2M","description":"New York","address1":"1133 Broadway","address2":"Suite 901","zip_code":"10010","city":"New York","state_code":"NY","country_code":"USA","latitude":null,"longitude":null,"geopoint":null},{"name":"Mixbook","category_code":"web","total_money_raised":"$11M","description":"Mixbook Global HQ","address1":"409 Sherman Ave","address2":"","zip_code":"94306-1827","city":"Palo Alto","state_code":"CA","country_code":"USA","latitude":37.383844,"longitude":-121.918319,"geopoint":{"type":"Point","coordinates":[-121.918319,37.383844]}},{"name":"Smalltown","category_code":"web","total_money_raised":"$4M","description":null,"address1":"210 S B Street","address2":"","zip_code":"94401","city":"San Mateo","state_code":"CA","country_code":"USA","latitude":37.566123,"longitude":-122.323045,"geopoint":{"type":"Point","coordinates":[-122.323045,37.566123]}},{"name":"Shelfari","category_code":"web","total_money_raised":"$1M","description":null,"address1":"","address2":"","zip_code":"","city":"Seattle","state_code":"WA","country_code":"USA","latitude":47.620716,"longitude":-122.347533,"geopoint":{"type":"Point","coordinates":[-122.347533,47.620716]}},{"name":"Cellfire","category_code":"mobile","total_money_raised":"$26M","description":"","address1":"2890 Zanker Road","address2":"STE 200","zip_code":"95054","city":"San Jose","state_code":"CA","country_code":"USA","latitude":37.395923,"longitude":-121.92902,"geopoint":{"type":"Point","coordinates":[-121.92902,37.395923]}},{"name":"RiffTrax","category_code":"games_video","total_money_raised":"$5M","description":"","address1":"12230 El Camino Real","address2":"Suite 300","zip_code":"92130","city":"San Diego","state_code":"CA","country_code":"USA","latitude":32.936973,"longitude":-117.240431,"geopoint":{"type":"Point","coordinates":[-117.240431,32.936973]}},{"name":"Raptr","category_code":"games_video","total_money_raised":"$27M","description":"","address1":"701 N Shoreline Blvd","address2":"","zip_code":"94043","city":"Mountain View","state_code":"CA","country_code":"USA","latitude":37.40384,"longitude":-122.07808,"geopoint":{"type":"Point","coordinates":[-122.07808,37.40384]}},{"name":"Kluster","category_code":"web","total_money_raised":"$1M","description":"New York Office","address1":"3rd St & Ave A","address2":"","zip_code":"10016","city":"New York","state_code":"NY","country_code":"USA","latitude":40.723652,"longitude":-73.985281,"geopoint":{"type":"Point","coordinates":[-73.985281,40.723652]}},{"name":"BillShrink","category_code":"web","total_money_raised":"$9M","description":"","address1":"601 Marshall St.","address2":"","zip_code":"94063","city":"Redwood City","state_code":"CA","country_code":"USA","latitude":37.503147,"longitude":-122.211435,"geopoint":{"type":"Point","coordinates":[-122.211435,37.503147]}},{"name":"Outbrain","category_code":"web","total_money_raised":"$99M","description":"New York","address1":"116 E. 16th Street","address2":"12th Floor","zip_code":"10003","city":"New York City","state_code":"NY","country_code":"USA","latitude":40.757929,"longitude":-73.985506,"geopoint":{"type":"Point","coordinates":[-73.985506,40.757929]}},{"name":"Outbrain","category_code":"web","total_money_raised":"$99M","description":"Israel","address1":"6 Arieh Regev St. Sappir","address2":"Industrial Park","zip_code":"42504","city":"Netanya","state_code":null,"country_code":"ISR","latitude":null,"longitude":null,"geopoint":null},{"name":"crowdSPRING","category_code":"ecommerce","total_money_raised":"$3M","description":null,"address1":"1200 W. Lake St","address2":"","zip_code":"60607","city":"Chicago","state_code":"IL","country_code":"USA","latitude":41.88583,"longitude":-87.657354,"geopoint":{"type":"Point","coordinates":[-87.657354,41.88583]}},{"name":"Footnote","category_code":"web","total_money_raised":"$10M","description":"","address1":"355 South 520 West","address2":"Suite 250","zip_code":"84042","city":"Lindon","state_code":"UT","country_code":"USA","latitude":40.3310529,"longitude":-111.7276347,"geopoint":{"type":"Point","coordinates":[-111.7276347,40.3310529]}},{"name":"DailyStrength","category_code":"web","total_money_raised":"$5M","description":"","address1":"12121 wilshire boulevard","address2":"suite 1100","zip_code":"90025","city":"Los Angeles","state_code":"CA","country_code":"USA","latitude":34.043948,"longitude":-118.468204,"geopoint":{"type":"Point","coordinates":[-118.468204,34.043948]}},{"name":"Clarizen","category_code":"software","total_money_raised":"$56M","description":"U.S. Office","address1":"2988 Campus Drive,","address2":"Suite 115","zip_code":"94403","city":"San Mateo","state_code":"CA","country_code":"USA","latitude":37.536044,"longitude":-122.328401,"geopoint":{"type":"Point","coordinates":[-122.328401,37.536044]}},{"name":"Clarizen","category_code":"software","total_money_raised":"$56M","description":"Israel Office","address1":"4 Hacharash Street","address2":"P.O. Box 7730","zip_code":"45241","city":"Hod Hasharon","state_code":null,"country_code":"ISR","latitude":null,"longitude":null,"geopoint":null},{"name":"Skydeck","category_code":"mobile","total_money_raised":"$4M","description":"","address1":"330 Waverley St.","address2":"Suite 3","zip_code":"94301","city":"Palo Alto","state_code":"CA","country_code":"USA","latitude":37.5645375,"longitude":-122.3254705,"geopoint":{"type":"Point","coordinates":[-122.3254705,37.5645375]}},{"name":"modu","category_code":"mobile","total_money_raised":"$85M","description":"HQ","address1":"17 Atir Yeda Street","address2":"","zip_code":"44643","city":"Kfar-Saba","state_code":null,"country_code":"ISR","latitude":null,"longitude":null,"geopoint":null},{"name":"Zuora","category_code":"software","total_money_raised":"$128M","description":"","address1":"1051 East Hillsdale Boulevard","address2":"Suite 600","zip_code":"94404","city":"Foster City","state_code":"CA","country_code":"USA","latitude":37.5596277,"longitude":-122.2709868,"geopoint":{"type":"Point","coordinates":[-122.2709868,37.5596277]}},{"name":"kwiry","category_code":"mobile","total_money_raised":"$1M","description":"","address1":"47 Kearny St.","address2":"Ste 700","zip_code":"94108","city":"San Francisco","state_code":"CA","country_code":"USA","latitude":37.7885714,"longitude":-122.4035985,"geopoint":{"type":"Point","coordinates":[-122.4035985,37.7885714]}},{"name":"Playfish","category_code":"games_video","total_money_raised":"$21M","description":"Corporate Headquarters","address1":"125 Kensington High St","address2":"W8 5SF","zip_code":"London","city":"London","state_code":null,"country_code":"GBR","latitude":51.4991094,"longitude":-0.1984802,"geopoint":{"type":"Point","coordinates":[-0.1984802,51.4991094]}},{"name":"Playfish","category_code":"games_video","total_money_raised":"$21M","description":"Playfish Arctic","address1":"Strandvn. 106","address2":"","zip_code":"9291","city":"Troms\u00c3\u00b8","state_code":null,"country_code":"NOR","latitude":69.636216,"longitude":18.931062,"geopoint":{"type":"Point","coordinates":[18.931062,69.636216]}},{"name":"Tapioca Mobile","category_code":"mobile","total_money_raised":"$5M","description":"","address1":"7220 Trade St","address2":"Suite 305","zip_code":"92121","city":"San Diego","state_code":"CA","country_code":"USA","latitude":32.88945,"longitude":-117.166929,"geopoint":{"type":"Point","coordinates":[-117.166929,32.88945]}},{"name":"ScanCafe","category_code":"web","total_money_raised":"$4M","description":"","address1":"1475 Rollins Road","address2":"","zip_code":"94010","city":"Burlingame","state_code":"CA","country_code":"USA","latitude":37.592584,"longitude":-122.369676,"geopoint":{"type":"Point","coordinates":[-122.369676,37.592584]}},{"name":"Moblica","category_code":"mobile","total_money_raised":"$6M","description":"HQ","address1":"88 Menachem Begin Street","address2":"","zip_code":"67138","city":"Tel Aviv","state_code":null,"country_code":"ISR","latitude":32.0554,"longitude":34.7595,"geopoint":{"type":"Point","coordinates":[34.7595,32.0554]}},{"name":"Kampyle","category_code":"web","total_money_raised":"$1M","description":null,"address1":"7 Abba Hillel St.","address2":"","zip_code":"","city":"Ramat Gan","state_code":null,"country_code":"ISR","latitude":null,"longitude":null,"geopoint":null},{"name":"XIHA","category_code":"games_video","total_money_raised":"$1M","description":"","address1":"Mannerheimintie 12 B","address2":"5th floor","zip_code":"00100","city":"Helsinki","state_code":null,"country_code":"FIN","latitude":60.1681494,"longitude":24.9410012,"geopoint":{"type":"Point","coordinates":[24.9410012,60.1681494]}},{"name":"XIHA","category_code":"games_video","total_money_raised":"$1M","description":"HQ USA","address1":"440 N Wolfe Rd","address2":"","zip_code":"94085-3869","city":"","state_code":"CA","country_code":"USA","latitude":47.3612288,"longitude":8.5515974,"geopoint":{"type":"Point","coordinates":[8.5515974,47.3612288]}},{"name":"XIHA","category_code":"games_video","total_money_raised":"$1M","description":"HQ Europ","address1":"Seefeldstrasse 69","address2":"","zip_code":"CH-8008","city":"Z\u00c3\u00bcrich","state_code":null,"country_code":"CHE","latitude":null,"longitude":null,"geopoint":null},{"name":"Kannuu","category_code":"software","total_money_raised":"$2M","description":"","address1":"8111 LBJ Freeway","address2":"Suite 1440","zip_code":"75251","city":"Dallas","state_code":"TX","country_code":"USA","latitude":32.9249424,"longitude":-96.7679229,"geopoint":{"type":"Point","coordinates":[-96.7679229,32.9249424]}},{"name":"Weplay","category_code":"web","total_money_raised":"$13M","description":"New York Office","address1":"156a Reade St","address2":"","zip_code":"10013","city":"New York","state_code":"NY","country_code":"USA","latitude":null,"longitude":null,"geopoint":null},{"name":"MindBites","category_code":"web","total_money_raised":"$1M","description":null,"address1":"","address2":"","zip_code":"","city":"","state_code":null,"country_code":"USA","latitude":37.09024,"longitude":-95.712891,"geopoint":{"type":"Point","coordinates":[-95.712891,37.09024]}},{"name":"Marketo","category_code":"software","total_money_raised":"$108M","description":"Marketo Headquarters","address1":"901 Mariners Island Blvd","address2":"Suite 200","zip_code":"94404","city":"San Mateo","state_code":"CA","country_code":"USA","latitude":37.5583,"longitude":-122.301385,"geopoint":{"type":"Point","coordinates":[-122.301385,37.5583]}},{"name":"Minggl","category_code":"network_hosting","total_money_raised":"$1M","description":null,"address1":"","address2":"","zip_code":"","city":"Austin","state_code":"TX","country_code":"USA","latitude":30.268735,"longitude":-97.745209,"geopoint":{"type":"Point","coordinates":[-97.745209,30.268735]}},{"name":"Placecast","category_code":"mobile","total_money_raised":"$8M","description":"","address1":"165 Page St.","address2":"","zip_code":"94102","city":"San Francisco","state_code":"CA","country_code":"USA","latitude":37.773688,"longitude":-122.423468,"geopoint":{"type":"Point","coordinates":[-122.423468,37.773688]}},{"name":"Cotendo","category_code":"software","total_money_raised":"$36M","description":"EMEA","address1":"4 Hagavish St., Entry A, Second Floor","address2":"P.O.Box 8897","zip_code":"42507","city":"Netanya","state_code":null,"country_code":"ISR","latitude":null,"longitude":null,"geopoint":null},{"name":"Cotendo","category_code":"software","total_money_raised":"$36M","description":"HQ \/ USA","address1":"530 Lakeside Drive","address2":"Suite 1400","zip_code":"94085","city":"Sunnyvale","state_code":"CA","country_code":"USA","latitude":37.504764,"longitude":-122.259568,"geopoint":{"type":"Point","coordinates":[-122.259568,37.504764]}},{"name":"Obvious","category_code":"web","total_money_raised":"$2M","description":"HQ","address1":"164 South Park Street","address2":"","zip_code":"94107","city":"San Francisco","state_code":"CA","country_code":"USA","latitude":null,"longitude":null,"geopoint":null},{"name":"Vivity Labs","category_code":"games_video","total_money_raised":"$1M","description":"","address1":"21 Water Street","address2":"","zip_code":"V6B 1A1","city":"Vancouver","state_code":null,"country_code":"CAN","latitude":49.282249,"longitude":-123.108456,"geopoint":{"type":"Point","coordinates":[-123.108456,49.282249]}},{"name":"Shopflick","category_code":"ecommerce","total_money_raised":"$8M","description":"","address1":"10500 W. Pico Blvd","address2":"","zip_code":"90064","city":"Los Angeles","state_code":"CA","country_code":"USA","latitude":34.044939,"longitude":-118.419067,"geopoint":{"type":"Point","coordinates":[-118.419067,34.044939]}},{"name":"vzaar","category_code":"web","total_money_raised":"$3M","description":"vzaar HQ","address1":"31-33 Bondway","address2":"","zip_code":"SW8 1SJ","city":"London","state_code":null,"country_code":"GBR","latitude":null,"longitude":null,"geopoint":null},{"name":"GitHub","category_code":"software","total_money_raised":"$100M","description":"","address1":"275 Brannan St.","address2":"","zip_code":"94107","city":"San Francisco","state_code":"CA","country_code":"USA","latitude":37.775196,"longitude":-122.419204,"geopoint":{"type":"Point","coordinates":[-122.419204,37.775196]}},{"name":"PluggedIn","category_code":"games_video","total_money_raised":"$2M","description":"Corporate Headquarters","address1":"","address2":"","zip_code":"","city":"Santa Monica","state_code":"CA","country_code":"USA","latitude":34.007967,"longitude":-118.489681,"geopoint":{"type":"Point","coordinates":[-118.489681,34.007967]}},{"name":"InMobi","category_code":"mobile","total_money_raised":"$216M","description":"Bangalore","address1":"Pebble Beach, Ground Floor, Embassy Golf Link Business Park,","address2":"Off Intermediate Ring Road, Bangalore \u00e2\u20ac\u201c 560 071","zip_code":"","city":"Bangalore","state_code":null,"country_code":"IND","latitude":null,"longitude":null,"geopoint":null},{"name":"InMobi","category_code":"mobile","total_money_raised":"$216M","description":"San Francisco","address1":"475 Brannan","address2":"Suite 420","zip_code":"94107","city":"San Francisco","state_code":"CA","country_code":"USA","latitude":37.4465496,"longitude":-122.1709208,"geopoint":{"type":"Point","coordinates":[-122.1709208,37.4465496]}},{"name":"InMobi","category_code":"mobile","total_money_raised":"$216M","description":"Singapore","address1":"UOB, Plaza 1, 36th Floor","address2":"80 Raffles Place","zip_code":"048624","city":"Singapore","state_code":null,"country_code":"SGP","latitude":1.284082,"longitude":103.851942,"geopoint":{"type":"Point","coordinates":[103.851942,1.284082]}},{"name":"InMobi","category_code":"mobile","total_money_raised":"$216M","description":"London","address1":"One Heddon Street","address2":"","zip_code":"W1B 4BD","city":"London","state_code":null,"country_code":"GBR","latitude":null,"longitude":null,"geopoint":null},{"name":"InMobi","category_code":"mobile","total_money_raised":"$216M","description":"Tokyo","address1":"Fuji Building 7F 701-B","address2":"Chiyoda-ku, Marunouchi","zip_code":"100-0005","city":"Tokyo","state_code":null,"country_code":"JPN","latitude":null,"longitude":null,"geopoint":null},{"name":"InMobi","category_code":"mobile","total_money_raised":"$216M","description":"Johannesburg","address1":"Afria Palazzo Towers West,Corner of William","address2":"Nicol & Montecasino Boulevard Fourways","zip_code":"","city":"Johannesburg","state_code":null,"country_code":"ZAF","latitude":null,"longitude":null,"geopoint":null},{"name":"InMobi","category_code":"mobile","total_money_raised":"$216M","description":"Seoul","address1":"#3720, ASEM Building 159-1","address2":"Samsung-Dong, Gangnam-Ku","zip_code":"","city":"Seoul","state_code":null,"country_code":"KOR","latitude":null,"longitude":null,"geopoint":null},{"name":"InMobi","category_code":"mobile","total_money_raised":"$216M","description":"Seoul","address1":"#3720, ASEM Building 159-1","address2":"Samsung-Dong, Gangnam-Ku","zip_code":"","city":"Seoul","state_code":null,"country_code":"KOR","latitude":null,"longitude":null,"geopoint":null},{"name":"Modern Feed","category_code":"games_video","total_money_raised":"$3M","description":null,"address1":"818 N. La Brea Ave.","address2":"","zip_code":"90038","city":"Los Angeles","state_code":"CA","country_code":"USA","latitude":34.085749,"longitude":-118.343791,"geopoint":{"type":"Point","coordinates":[-118.343791,34.085749]}},{"name":"Aardvark","category_code":"web","total_money_raised":"$6M","description":null,"address1":"","address2":"","zip_code":"94110","city":"San Francisco","state_code":"CA","country_code":"USA","latitude":37.748676,"longitude":-122.415813,"geopoint":{"type":"Point","coordinates":[-122.415813,37.748676]}},{"name":"Retail Convergence","category_code":"ecommerce","total_money_raised":"$25M","description":null,"address1":"","address2":"","zip_code":"","city":"Boston","state_code":"MA","country_code":"USA","latitude":42.35888,"longitude":-71.05682,"geopoint":{"type":"Point","coordinates":[-71.05682,42.35888]}},{"name":"Serious Business","category_code":"games_video","total_money_raised":"$4M","description":"","address1":"580 Market Street","address2":"#600","zip_code":"94104","city":"San Francisco","state_code":"CA","country_code":"USA","latitude":37.7893215,"longitude":-122.4013624,"geopoint":{"type":"Point","coordinates":[-122.4013624,37.7893215]}},{"name":"Kabam","category_code":"games_video","total_money_raised":"$125M","description":"HQ","address1":"795 Folsom Street","address2":"Suite 600","zip_code":"94107","city":"San Francisco","state_code":"CA","country_code":"USA","latitude":37.3944561,"longitude":-122.0785314,"geopoint":{"type":"Point","coordinates":[-122.0785314,37.3944561]}},{"name":"Kabam","category_code":"games_video","total_money_raised":"$125M","description":"Beijing office","address1":"","address2":"","zip_code":"","city":"Beijing","state_code":null,"country_code":"CHN","latitude":null,"longitude":null,"geopoint":null},{"name":"New Relic","category_code":"software","total_money_raised":"$175M","description":"","address1":"","address2":"","zip_code":"","city":"San Francisco","state_code":"CA","country_code":"USA","latitude":37.269175,"longitude":-119.306607,"geopoint":{"type":"Point","coordinates":[-119.306607,37.269175]}},{"name":"Zinch","category_code":"web","total_money_raised":"$5M","description":"San Francisco, CA","address1":"600 Townsend St, East Building","address2":"4th Floor","zip_code":"94103","city":"San Francisco","state_code":"CA","country_code":"USA","latitude":40.234451,"longitude":-111.658656,"geopoint":{"type":"Point","coordinates":[-111.658656,40.234451]}},{"name":"Zinch","category_code":"web","total_money_raised":"$5M","description":"Orem, UT","address1":"1459 N 1200 W","address2":"","zip_code":"84057","city":"Orem","state_code":"UT","country_code":"USA","latitude":null,"longitude":null,"geopoint":null},{"name":"Zinch","category_code":"web","total_money_raised":"$5M","description":"Bejing, China Office","address1":"Room 5302, Ideal Plaza, No 111 Zhichun Road","address2":"Haidian District","zip_code":"100086","city":"Beijing","state_code":null,"country_code":"CHN","latitude":null,"longitude":null,"geopoint":null},{"name":"Memopal","category_code":"network_hosting","total_money_raised":"$1M","description":null,"address1":"Via Nepal, 29","address2":"","zip_code":"00144","city":"Rome","state_code":null,"country_code":"ITA","latitude":41.823172,"longitude":12.461425,"geopoint":{"type":"Point","coordinates":[12.461425,41.823172]}},{"name":"Fanzter","category_code":"web","total_money_raised":"$4M","description":"","address1":"45 South Main Street","address2":"Suite 200","zip_code":"06085","city":"Unionville","state_code":"CT","country_code":"USA","latitude":null,"longitude":null,"geopoint":null},{"name":"IP Commerce","category_code":"network_hosting","total_money_raised":"$44M","description":"","address1":"1001 17th Street","address2":"Suite 400","zip_code":"80202","city":"Denver","state_code":"CO","country_code":"USA","latitude":39.74893,"longitude":-104.99342,"geopoint":{"type":"Point","coordinates":[-104.99342,39.74893]}},{"name":"rVita","category_code":"software","total_money_raised":"$1M","description":null,"address1":"4677 Old Ironsides Drive","address2":"#450C","zip_code":"95054","city":"Santa Clara","state_code":"CA","country_code":"USA","latitude":37.398476,"longitude":-121.978821,"geopoint":{"type":"Point","coordinates":[-121.978821,37.398476]}},{"name":"OleOle","category_code":"network_hosting","total_money_raised":"$5M","description":null,"address1":"9777 Wilshire Blvd","address2":"Suite 1004","zip_code":"90212","city":"Beverly Hills","state_code":"CA","country_code":"USA","latitude":34.067153,"longitude":-118.409161,"geopoint":{"type":"Point","coordinates":[-118.409161,34.067153]}},{"name":"mywaves","category_code":"mobile","total_money_raised":"$6M","description":"0509419819","address1":"4593","address2":"440 N. Wolfe Road","zip_code":"94085","city":"Sunnyvale","state_code":"CT","country_code":"SAU","latitude":37.3886,"longitude":-122.016779,"geopoint":{"type":"Point","coordinates":[-122.016779,37.3886]}},{"name":"Sonico","category_code":"social","total_money_raised":"$6M","description":"Headquarters","address1":"Ayacucho 1246, 2\u00c2\u00ba Floor","address2":"","zip_code":"","city":"Buenos Aires","state_code":null,"country_code":"ARG","latitude":-34.611781,"longitude":-58.417309,"geopoint":{"type":"Point","coordinates":[-58.417309,-34.611781]}},{"name":"Sonico","category_code":"social","total_money_raised":"$6M","description":"Sao Paulo - Brazil","address1":"Av Morumbi 6901 Conjunto 22, Morumbi","address2":"","zip_code":"SP 05650-002","city":"Sao Paulo","state_code":null,"country_code":"BRA","latitude":null,"longitude":null,"geopoint":null},{"name":"Sonico","category_code":"social","total_money_raised":"$6M","description":"Miami - USA","address1":"3301 NE 1st Ave, Miami-Dade","address2":"","zip_code":"33127","city":"","state_code":"FL","country_code":"USA","latitude":null,"longitude":null,"geopoint":null},{"name":"CoverItLive","category_code":"web","total_money_raised":"$1M","description":"Corporate Headquarters","address1":"200 Academy","address2":"Suite 100","zip_code":"78704","city":"Austin","state_code":"TX","country_code":"USA","latitude":43.6378576,"longitude":-79.4255306,"geopoint":{"type":"Point","coordinates":[-79.4255306,43.6378576]}},{"name":"Zefanclub","category_code":"web","total_money_raised":"$1M","description":"Zefanclub Paris","address1":"19 Rue Vivienne","address2":"","zip_code":"75002","city":"Paris","state_code":null,"country_code":"FRA","latitude":48.868478,"longitude":2.339843,"geopoint":{"type":"Point","coordinates":[2.339843,48.868478]}},{"name":"Zefanclub","category_code":"web","total_money_raised":"$1M","description":"Zefanclub Istanbul","address1":"Nispetiye Mah. Aytar Cad.","address2":"Basaran Apartmani Etiler-Levent","zip_code":"","city":"Istanbul","state_code":null,"country_code":"TUR","latitude":null,"longitude":null,"geopoint":null},{"name":"Backblaze","category_code":"software","total_money_raised":"$5M","description":"Headquarters","address1":"425A Forest Ave","address2":"","zip_code":"94301","city":"Palo Alto","state_code":"CA","country_code":"USA","latitude":37.44296,"longitude":-122.151198,"geopoint":{"type":"Point","coordinates":[-122.151198,37.44296]}},{"name":"Backblaze","category_code":"software","total_money_raised":"$5M","description":"","address1":"500 Ben Franklin Ct","address2":"","zip_code":"94401","city":"San Mateo","state_code":"CA","country_code":"USA","latitude":null,"longitude":null,"geopoint":null},{"name":"TuneCore","category_code":"games_video","total_money_raised":"$7M","description":"","address1":"45 Main Street","address2":"Suite 705","zip_code":"11201","city":"Brooklyn","state_code":"NY","country_code":"USA","latitude":40.704382,"longitude":-73.986572,"geopoint":{"type":"Point","coordinates":[-73.986572,40.704382]}},{"name":"Crowd Science","category_code":"web","total_money_raised":"$2M","description":"San Jose Headquarters","address1":"1735 Technology Drive","address2":"Suite 780","zip_code":"95110","city":"San Jose","state_code":"CA","country_code":"USA","latitude":37.419041,"longitude":-122.087471,"geopoint":{"type":"Point","coordinates":[-122.087471,37.419041]}},{"name":"Crowd Science","category_code":"web","total_money_raised":"$2M","description":"Toronto Office","address1":"40 Eglinton Ave East","address2":"Suite 200","zip_code":"M4P 3A2","city":"Toronto","state_code":null,"country_code":"CAN","latitude":43.712309,"longitude":-79.399538,"geopoint":{"type":"Point","coordinates":[-79.399538,43.712309]}},{"name":"Dizzywood","category_code":"games_video","total_money_raised":"$2M","description":null,"address1":"","address2":"","zip_code":"","city":"","state_code":"CA","country_code":"USA","latitude":37.269175,"longitude":-119.306607,"geopoint":{"type":"Point","coordinates":[-119.306607,37.269175]}},{"name":"StartForce","category_code":"web","total_money_raised":"$6M","description":null,"address1":"","address2":"","zip_code":"94109","city":"San Francisco","state_code":"CA","country_code":"USA","latitude":37.796164,"longitude":-122.420903,"geopoint":{"type":"Point","coordinates":[-122.420903,37.796164]}},{"name":"HealthiNation","category_code":"web","total_money_raised":"$12M","description":"HealthiNation","address1":"35 East 21st Street","address2":"Suite 6E","zip_code":"10010","city":"New York","state_code":"NY","country_code":"USA","latitude":40.739341,"longitude":-73.988357,"geopoint":{"type":"Point","coordinates":[-73.988357,40.739341]}},{"name":"Titan Gaming","category_code":"games_video","total_money_raised":"$1M","description":"Santa Monica Office","address1":"1351 4th Street, 4th floor","address2":"","zip_code":"90401","city":"Santa Monica","state_code":"CA","country_code":"USA","latitude":53.544711,"longitude":-113.515769,"geopoint":{"type":"Point","coordinates":[-113.515769,53.544711]}},{"name":"LabPixies","category_code":"web","total_money_raised":"$1M","description":"","address1":"","address2":"","zip_code":"","city":"Tel Aviv","state_code":null,"country_code":"ISR","latitude":32.0554,"longitude":34.7595,"geopoint":{"type":"Point","coordinates":[34.7595,32.0554]}},{"name":"Trusera","category_code":"web","total_money_raised":"$2M","description":"","address1":"2011 East Olive","address2":"","zip_code":"98122","city":"Seattle","state_code":"WA","country_code":"USA","latitude":47.617122,"longitude":-122.305994,"geopoint":{"type":"Point","coordinates":[-122.305994,47.617122]}},{"name":"Keibi Technologies","category_code":"software","total_money_raised":"$5M","description":"","address1":"685 Market Street","address2":"Suite 300","zip_code":"94105","city":"San Francisco","state_code":"CA","country_code":"USA","latitude":37.787646,"longitude":-122.402759,"geopoint":{"type":"Point","coordinates":[-122.402759,37.787646]}},{"name":"VBS TV","category_code":"games_video","total_money_raised":"$10M","description":"HeadQuarters","address1":"97 North Tenth Street","address2":"Suite 204","zip_code":"11211","city":"Brooklyn","state_code":"NY","country_code":"USA","latitude":40.720764,"longitude":-73.957968,"geopoint":{"type":"Point","coordinates":[-73.957968,40.720764]}},{"name":"Fortisphere","category_code":"software","total_money_raised":"$10M","description":"HQ","address1":"4530 Walney Rd","address2":"Suite 203","zip_code":"22031","city":"Chantilly","state_code":"VA","country_code":"USA","latitude":38.87804,"longitude":-77.436151,"geopoint":{"type":"Point","coordinates":[-77.436151,38.87804]}},{"name":"Zigabid","category_code":"web","total_money_raised":"$1M","description":"US Headquarters)","address1":"744 Foothill Blvd","address2":"","zip_code":"91011","city":"La Canada","state_code":"CA","country_code":"USA","latitude":34.208304,"longitude":-118.209263,"geopoint":{"type":"Point","coordinates":[-118.209263,34.208304]}},{"name":"Samanage","category_code":"software","total_money_raised":"$8M","description":"Samanage USA","address1":"130 Edinburgh South","address2":"Suite 104","zip_code":"27511","city":"Cary","state_code":"NC","country_code":"USA","latitude":null,"longitude":null,"geopoint":null},{"name":"Samanage","category_code":"software","total_money_raised":"$8M","description":"Samanage Israel","address1":"POB 8733","address2":"","zip_code":"42507","city":"Netanya","state_code":null,"country_code":"ISR","latitude":null,"longitude":null,"geopoint":null},{"name":"Funtactix","category_code":"games_video","total_money_raised":"$6M","description":"HQ","address1":"349 5TH AVE","address2":"","zip_code":"10016","city":"New York","state_code":"NY","country_code":"USA","latitude":null,"longitude":null,"geopoint":null},{"name":"PeakStream","category_code":"software","total_money_raised":"$22M","description":"HQ","address1":"1600 Bridge Parkway","address2":"Suite 102","zip_code":"94065","city":"Redwood City","state_code":"CA","country_code":"USA","latitude":null,"longitude":null,"geopoint":null},{"name":"PharmaNation","category_code":"web","total_money_raised":"$25M","description":"Headquarters","address1":"100 Overlook Center, 2nd Floor","address2":"","zip_code":"08540","city":"Princeton","state_code":"NJ","country_code":"USA","latitude":null,"longitude":null,"geopoint":null},{"name":"Total Beauty Media","category_code":"web","total_money_raised":"$16M","description":"Headquarters","address1":"3420 Ocean Park Blvd","address2":"Suite 3050","zip_code":"90405","city":"Santa Monica","state_code":"CA","country_code":"USA","latitude":null,"longitude":null,"geopoint":null},{"name":"Ocarina Networks","category_code":"network_hosting","total_money_raised":"$20M","description":"Headquarters","address1":"42 Airport Parkway","address2":"","zip_code":"95110","city":"San Jose","state_code":"CA","country_code":"USA","latitude":37.371056,"longitude":-121.920558,"geopoint":{"type":"Point","coordinates":[-121.920558,37.371056]}},{"name":"Riot Games","category_code":"games_video","total_money_raised":"$8M","description":"","address1":"10736 Jefferson Blvd.","address2":"#622","zip_code":"90230","city":"Culver City","state_code":"CA","country_code":"USA","latitude":34.0025911,"longitude":-118.3942383,"geopoint":{"type":"Point","coordinates":[-118.3942383,34.0025911]}},{"name":"muzu tv","category_code":"web","total_money_raised":"$8M","description":"Corporate Headquarters","address1":"19 South William Street","address2":"","zip_code":"2","city":"Dublin","state_code":null,"country_code":"IRL","latitude":53.341987,"longitude":-6.262682,"geopoint":{"type":"Point","coordinates":[-6.262682,53.341987]}},{"name":"muzu tv","category_code":"web","total_money_raised":"$8M","description":"London Office","address1":"22 Greek Street","address2":"","zip_code":"W1D 4DY","city":"London","state_code":null,"country_code":"GBR","latitude":51.513678,"longitude":-0.13063,"geopoint":{"type":"Point","coordinates":[-0.13063,51.513678]}},{"name":"muzu tv","category_code":"web","total_money_raised":"$8M","description":"New York Office","address1":"345 Park Avenue","address2":"17th Floor","zip_code":"10154-0037","city":"New York","state_code":"NY","country_code":"USA","latitude":40.757716,"longitude":-73.972321,"geopoint":{"type":"Point","coordinates":[-73.972321,40.757716]}},{"name":"muzu tv","category_code":"web","total_money_raised":"$8M","description":"Waterford Office","address1":"Arclabs","address2":"Carriganore","zip_code":"","city":"Waterford","state_code":null,"country_code":"IRL","latitude":null,"longitude":null,"geopoint":null},{"name":"Code71","category_code":"software","total_money_raised":"$1M","description":"Corporate Office","address1":"4732 Sadler Green Place","address2":"","zip_code":"23060","city":"Glen Allen","state_code":"VA","country_code":"USA","latitude":37.665173,"longitude":-77.587267,"geopoint":{"type":"Point","coordinates":[-77.587267,37.665173]}},{"name":"Code71","category_code":"software","total_money_raised":"$1M","description":"Dhaka Office","address1":"House#39\/A (6th floor), Road#11","address2":"","zip_code":"1205","city":"Dhanmondi","state_code":null,"country_code":"BGD","latitude":23.743156,"longitude":90.379976,"geopoint":{"type":"Point","coordinates":[90.379976,23.743156]}},{"name":"Napera Networks","category_code":"network_hosting","total_money_raised":"$6M","description":"Headquarters","address1":"4957 Lakemont Blvd SE","address2":"Suite C4-300","zip_code":"98006","city":"Bellevue","state_code":"WA","country_code":"USA","latitude":47.578174,"longitude":-122.212731,"geopoint":{"type":"Point","coordinates":[-122.212731,47.578174]}},{"name":"LivingSocial","category_code":"ecommerce","total_money_raised":"$935M","description":"","address1":"1445 New York Ave NW","address2":"#200","zip_code":"20005","city":"Washington D.C.","state_code":"DC","country_code":"USA","latitude":null,"longitude":null,"geopoint":null},{"name":"Douban","category_code":"web","total_money_raised":"$59M","description":"","address1":"Jiuxianqiao","address2":"","zip_code":"100005","city":"Beijing","state_code":null,"country_code":"CHN","latitude":null,"longitude":null,"geopoint":null},{"name":"SubHub","category_code":"network_hosting","total_money_raised":"$1M","description":"Corporate Headquarters","address1":"The Studios","address2":"3 Burt Street","zip_code":"CF10 5FZ","city":"Cardiff","state_code":null,"country_code":"GBR","latitude":null,"longitude":null,"geopoint":null},{"name":"SubHub","category_code":"network_hosting","total_money_raised":"$1M","description":"US Office","address1":"11056 Renaissance Dr.","address2":"Suite 323","zip_code":"28036","city":"Davidson","state_code":"NC","country_code":"USA","latitude":35.3846,"longitude":-80.786532,"geopoint":{"type":"Point","coordinates":[-80.786532,35.3846]}},{"name":"Six Degrees Games","category_code":"games_video","total_money_raised":"$18M","description":"HQ","address1":"4223 Glencoe Boulevard","address2":"Suite C215","zip_code":"90292","city":"Marina del Rey","state_code":"CA","country_code":"USA","latitude":null,"longitude":null,"geopoint":null},{"name":"Garena","category_code":"web","total_money_raised":"$2M","description":"","address1":"","address2":"","zip_code":"","city":"Singapore","state_code":null,"country_code":"SGP","latitude":null,"longitude":null,"geopoint":null},{"name":"Garena","category_code":"web","total_money_raised":"$2M","description":"","address1":"","address2":"","zip_code":"","city":"Taipei","state_code":null,"country_code":"TWN","latitude":null,"longitude":null,"geopoint":null},{"name":"Garena","category_code":"web","total_money_raised":"$2M","description":"","address1":"","address2":"","zip_code":"","city":"Hanoi","state_code":null,"country_code":"VNM","latitude":null,"longitude":null,"geopoint":null},{"name":"Garena","category_code":"web","total_money_raised":"$2M","description":"","address1":"","address2":"","zip_code":"","city":"Ho Chi Minh City","state_code":null,"country_code":"VNM","latitude":null,"longitude":null,"geopoint":null},{"name":"Xero","category_code":"software","total_money_raised":"$244M","description":"Headquarters","address1":"3 Market Lane","address2":"","zip_code":"","city":"Wellington","state_code":null,"country_code":"NZL","latitude":null,"longitude":null,"geopoint":null},{"name":"Xero","category_code":"software","total_money_raised":"$244M","description":"Auckland Office","address1":"Level 1 69 St Georges Bay Road","address2":"Parnell","zip_code":"","city":"Auckland","state_code":null,"country_code":"NZL","latitude":null,"longitude":null,"geopoint":null},{"name":"Xero","category_code":"software","total_money_raised":"$244M","description":"Australian Headquarters","address1":"1\/6 Elizabeth Street","address2":"Hawthorn","zip_code":"3121","city":"Melbourne","state_code":null,"country_code":"AUS","latitude":null,"longitude":null,"geopoint":null},{"name":"Xero","category_code":"software","total_money_raised":"$244M","description":"US Headquarters","address1":"244 Jackson St","address2":"Level 2","zip_code":"94111","city":"San Francisco","state_code":"CA","country_code":"USA","latitude":null,"longitude":null,"geopoint":null},{"name":"Xero","category_code":"software","total_money_raised":"$244M","description":"Sydney Office","address1":"Suite 1 1 Mary's Place","address2":"","zip_code":"2010","city":"Surry Hills NSW","state_code":null,"country_code":"AUS","latitude":null,"longitude":null,"geopoint":null},{"name":"Xero","category_code":"software","total_money_raised":"$244M","description":"Canberra Office","address1":"Level 2, 33-35 Ainslie Avenue","address2":"","zip_code":"2601","city":"Canberra ACT","state_code":null,"country_code":"AUS","latitude":null,"longitude":null,"geopoint":null},{"name":"Xero","category_code":"software","total_money_raised":"$244M","description":"UK Headquarters","address1":"500 Avebury Boulevard","address2":"","zip_code":"MK9 2BE","city":"Milton Keynes","state_code":null,"country_code":"GBR","latitude":null,"longitude":null,"geopoint":null},{"name":"SpiderOak","category_code":"web","total_money_raised":"$2M","description":"SpiderOak, Inc.","address1":"555 Huehl Road","address2":"","zip_code":"60062","city":"Northbrook","state_code":"IL","country_code":"USA","latitude":42.142261,"longitude":-87.862305,"geopoint":{"type":"Point","coordinates":[-87.862305,42.142261]}},{"name":"MyFrontSteps","category_code":"web","total_money_raised":"$3M","description":"Corporate Headquarters","address1":"55 -33rd St","address2":"","zip_code":"S7K 0R8","city":"Saskatoon","state_code":null,"country_code":"CAN","latitude":52.143886,"longitude":-106.6634565,"geopoint":{"type":"Point","coordinates":[-106.6634565,52.143886]}},{"name":"Koolanoo Group","category_code":"web","total_money_raised":"$32M","description":"Beijing Office","address1":"D\/20F, The Place, #9 Guanghua Road","address2":"Chaoyang District","zip_code":"100020","city":"Beijing","state_code":null,"country_code":"CHN","latitude":39.905556,"longitude":116.395833,"geopoint":{"type":"Point","coordinates":[116.395833,39.905556]}},{"name":"Stack Exchange","category_code":"software","total_money_raised":"$18M","description":"New York Office","address1":"55 Broadway 26 FL","address2":"","zip_code":"10006","city":"New York","state_code":"NY","country_code":"USA","latitude":null,"longitude":null,"geopoint":null},{"name":"ZManda","category_code":"software","total_money_raised":"$13M","description":"HQ","address1":"465 S. Mathilda Ave","address2":"Suite 300","zip_code":"94086","city":"Sunnyvale","state_code":"CA","country_code":"USA","latitude":37.3725243,"longitude":-122.035963,"geopoint":{"type":"Point","coordinates":[-122.035963,37.3725243]}},{"name":"Jumptap","category_code":"mobile","total_money_raised":"$122M","description":"Corporate Headquarters","address1":"155 Seaport Blvd","address2":"8th Floor","zip_code":"02210","city":"Boston","state_code":"MA","country_code":"USA","latitude":42.368633,"longitude":-71.075305,"geopoint":{"type":"Point","coordinates":[-71.075305,42.368633]}},{"name":"Jumptap","category_code":"mobile","total_money_raised":"$122M","description":"Jumptap New York","address1":"38 East 32nd Street","address2":"11th Floor","zip_code":"10016","city":"New York City","state_code":"NY","country_code":"USA","latitude":40.751478,"longitude":-73.980305,"geopoint":{"type":"Point","coordinates":[-73.980305,40.751478]}},{"name":"Tonchidot","category_code":"mobile","total_money_raised":"$16M","description":"HQ","address1":"2-5-12, Shinjuku","address2":"Shinjuku-ku","zip_code":"160-0022","city":"Tokyo","state_code":null,"country_code":"JPN","latitude":null,"longitude":null,"geopoint":null},{"name":"Tweegee","category_code":"games_video","total_money_raised":"$3M","description":"Tweegee Develpoment","address1":"B.S.R 1","address2":"Ben Gurion 2","zip_code":"","city":"Ramat Gan","state_code":null,"country_code":"ISR","latitude":32.037363,"longitude":34.8003705,"geopoint":{"type":"Point","coordinates":[34.8003705,32.037363]}},{"name":"Tweegee","category_code":"games_video","total_money_raised":"$3M","description":"Tipeez Turkey","address1":"","address2":"","zip_code":"","city":"Istanbul","state_code":null,"country_code":"TUR","latitude":null,"longitude":null,"geopoint":null},{"name":"Tweegee","category_code":"games_video","total_money_raised":"$3M","description":"Tvidi.ru","address1":"","address2":"","zip_code":"","city":"Moscow","state_code":null,"country_code":"RUS","latitude":null,"longitude":null,"geopoint":null},{"name":"Tweegee","category_code":"games_video","total_money_raised":"$3M","description":"Twigis.com","address1":"","address2":"","zip_code":"","city":"Buenos Aires","state_code":null,"country_code":"ARG","latitude":null,"longitude":null,"geopoint":null},{"name":"Lolapps","category_code":"web","total_money_raised":"$4M","description":"","address1":"116 New Montgomery","address2":"","zip_code":"94105","city":"San Francisco","state_code":"CA","country_code":"USA","latitude":37.7870923,"longitude":-122.3999719,"geopoint":{"type":"Point","coordinates":[-122.3999719,37.7870923]}},{"name":"Hangout Industries","category_code":"games_video","total_money_raised":"$12M","description":"","address1":"110 Chauncy Street","address2":"","zip_code":"02111","city":"Boston","state_code":"MA","country_code":"USA","latitude":42.352835,"longitude":-71.0609612,"geopoint":{"type":"Point","coordinates":[-71.0609612,42.352835]}},{"name":"InnerRewards","category_code":"ecommerce","total_money_raised":"$1M","description":"West Coast","address1":"731 Market Street","address2":"Floor 6","zip_code":"94103","city":"San Francisco","state_code":"CA","country_code":"USA","latitude":37.78691,"longitude":-122.404403,"geopoint":{"type":"Point","coordinates":[-122.404403,37.78691]}},{"name":"InnerRewards","category_code":"ecommerce","total_money_raised":"$1M","description":"East Coast","address1":"16 West 23rd","address2":"Floor 4","zip_code":"10010","city":"New York","state_code":"NY","country_code":"USA","latitude":40.741594,"longitude":-73.990468,"geopoint":{"type":"Point","coordinates":[-73.990468,40.741594]}},{"name":"Koolanoo Group","category_code":"web","total_money_raised":"$32M","description":"Beijing Office","address1":"D\/20F, The Place, #9 Guanghua Road","address2":"Chaoyang District","zip_code":"100020","city":"Beijing","state_code":null,"country_code":"CHN","latitude":39.905556,"longitude":116.395833,"geopoint":{"type":"Point","coordinates":[116.395833,39.905556]}},{"name":"Stack Exchange","category_code":"software","total_money_raised":"$18M","description":"New York Office","address1":"55 Broadway 26 FL","address2":"","zip_code":"10006","city":"New York","state_code":"NY","country_code":"USA","latitude":null,"longitude":null,"geopoint":null},{"name":"ZManda","category_code":"software","total_money_raised":"$13M","description":"HQ","address1":"465 S. Mathilda Ave","address2":"Suite 300","zip_code":"94086","city":"Sunnyvale","state_code":"CA","country_code":"USA","latitude":37.3725243,"longitude":-122.035963,"geopoint":{"type":"Point","coordinates":[-122.035963,37.3725243]}},{"name":"Jumptap","category_code":"mobile","total_money_raised":"$122M","description":"Corporate Headquarters","address1":"155 Seaport Blvd","address2":"8th Floor","zip_code":"02210","city":"Boston","state_code":"MA","country_code":"USA","latitude":42.368633,"longitude":-71.075305,"geopoint":{"type":"Point","coordinates":[-71.075305,42.368633]}},{"name":"Jumptap","category_code":"mobile","total_money_raised":"$122M","description":"Jumptap New York","address1":"38 East 32nd Street","address2":"11th Floor","zip_code":"10016","city":"New York City","state_code":"NY","country_code":"USA","latitude":40.751478,"longitude":-73.980305,"geopoint":{"type":"Point","coordinates":[-73.980305,40.751478]}},{"name":"Tonchidot","category_code":"mobile","total_money_raised":"$16M","description":"HQ","address1":"2-5-12, Shinjuku","address2":"Shinjuku-ku","zip_code":"160-0022","city":"Tokyo","state_code":null,"country_code":"JPN","latitude":null,"longitude":null,"geopoint":null},{"name":"Tweegee","category_code":"games_video","total_money_raised":"$3M","description":"Tweegee Develpoment","address1":"B.S.R 1","address2":"Ben Gurion 2","zip_code":"","city":"Ramat Gan","state_code":null,"country_code":"ISR","latitude":32.037363,"longitude":34.8003705,"geopoint":{"type":"Point","coordinates":[34.8003705,32.037363]}},{"name":"Tweegee","category_code":"games_video","total_money_raised":"$3M","description":"Tipeez Turkey","address1":"","address2":"","zip_code":"","city":"Istanbul","state_code":null,"country_code":"TUR","latitude":null,"longitude":null,"geopoint":null},{"name":"Tweegee","category_code":"games_video","total_money_raised":"$3M","description":"Tvidi.ru","address1":"","address2":"","zip_code":"","city":"Moscow","state_code":null,"country_code":"RUS","latitude":null,"longitude":null,"geopoint":null},{"name":"Tweegee","category_code":"games_video","total_money_raised":"$3M","description":"Twigis.com","address1":"","address2":"","zip_code":"","city":"Buenos Aires","state_code":null,"country_code":"ARG","latitude":null,"longitude":null,"geopoint":null},{"name":"Lolapps","category_code":"web","total_money_raised":"$4M","description":"","address1":"116 New Montgomery","address2":"","zip_code":"94105","city":"San Francisco","state_code":"CA","country_code":"USA","latitude":37.7870923,"longitude":-122.3999719,"geopoint":{"type":"Point","coordinates":[-122.3999719,37.7870923]}},{"name":"Hangout Industries","category_code":"games_video","total_money_raised":"$12M","description":"","address1":"110 Chauncy Street","address2":"","zip_code":"02111","city":"Boston","state_code":"MA","country_code":"USA","latitude":42.352835,"longitude":-71.0609612,"geopoint":{"type":"Point","coordinates":[-71.0609612,42.352835]}},{"name":"InnerRewards","category_code":"ecommerce","total_money_raised":"$1M","description":"West Coast","address1":"731 Market Street","address2":"Floor 6","zip_code":"94103","city":"San Francisco","state_code":"CA","country_code":"USA","latitude":37.78691,"longitude":-122.404403,"geopoint":{"type":"Point","coordinates":[-122.404403,37.78691]}},{"name":"InnerRewards","category_code":"ecommerce","total_money_raised":"$1M","description":"East Coast","address1":"16 West 23rd","address2":"Floor 4","zip_code":"10010","city":"New York","state_code":"NY","country_code":"USA","latitude":40.741594,"longitude":-73.990468,"geopoint":{"type":"Point","coordinates":[-73.990468,40.741594]}},{"name":"Buzzd","category_code":"mobile","total_money_raised":"$4M","description":"buzzd HQ","address1":"833 Broadway","address2":"","zip_code":"10003","city":"New York","state_code":"NY","country_code":"USA","latitude":40.733928,"longitude":-73.991334,"geopoint":{"type":"Point","coordinates":[-73.991334,40.733928]}},{"name":"DealBase Corporation","category_code":"web","total_money_raised":"$1M","description":"DB HQ","address1":"1112 Ocean Drive","address2":"","zip_code":"90266","city":"Manhattan Beach","state_code":"CA","country_code":"USA","latitude":37.5758867,"longitude":-122.3277578,"geopoint":{"type":"Point","coordinates":[-122.3277578,37.5758867]}},{"name":"Cliqset","category_code":"web","total_money_raised":"$2M","description":"Cliqset HQ","address1":"1450 Flagler Avenue","address2":"#3","zip_code":"32207","city":"Jacksonville","state_code":"FL","country_code":"USA","latitude":30.310978,"longitude":-81.657707,"geopoint":{"type":"Point","coordinates":[-81.657707,30.310978]}},{"name":"Metranome","category_code":"mobile","total_money_raised":"$2M","description":"Head Office","address1":"515 Dotzert Ct #5","address2":"","zip_code":"N2L 6A7","city":"Waterloo","state_code":null,"country_code":"CAN","latitude":43.494754,"longitude":-80.530888,"geopoint":{"type":"Point","coordinates":[-80.530888,43.494754]}},{"name":"Brightstorm","category_code":"games_video","total_money_raised":"$6M","description":"Headquarters","address1":"685 Market St. Street, Suite 270","address2":"","zip_code":"94105","city":"San Francisco","state_code":"CA","country_code":"USA","latitude":37.804619,"longitude":-122.371203,"geopoint":{"type":"Point","coordinates":[-122.371203,37.804619]}},{"name":"Bloglovin","category_code":"web","total_money_raised":"$1M","description":"Bloglovin' HQ","address1":"","address2":"","zip_code":"","city":"Stockholm","state_code":null,"country_code":"SWE","latitude":null,"longitude":null,"geopoint":null},{"name":"Bloglovin","category_code":"web","total_money_raised":"$1M","description":"Bloglovin' US","address1":"416 W 13th St","address2":"Suite 203","zip_code":"10014","city":"New York","state_code":"NY","country_code":"USA","latitude":40.740308,"longitude":-74.007199,"geopoint":{"type":"Point","coordinates":[-74.007199,40.740308]}},{"name":"Radio One Llama","category_code":"games_video","total_money_raised":"$1M","description":"","address1":"","address2":"","zip_code":"","city":"Champaign","state_code":"IL","country_code":"USA","latitude":40.1128,"longitude":-88.271074,"geopoint":{"type":"Point","coordinates":[-88.271074,40.1128]}},{"name":"MXP4","category_code":"games_video","total_money_raised":"$17M","description":"HQ","address1":"54 Rue Paradis","address2":"4th Floor","zip_code":"75010","city":"Paris","state_code":null,"country_code":"FRA","latitude":null,"longitude":null,"geopoint":null},{"name":"Siri","category_code":"software","total_money_raised":"$24M","description":"Headquarters","address1":"","address2":"","zip_code":"","city":"San Jose","state_code":"CA","country_code":"USA","latitude":37.320052,"longitude":-121.877636,"geopoint":{"type":"Point","coordinates":[-121.877636,37.320052]}},{"name":"ResearchGate","category_code":"social","total_money_raised":"$35M","description":"HQ","address1":"Invalidenstr. 115","address2":"","zip_code":"10115","city":"Berlin","state_code":null,"country_code":"DEU","latitude":52.5308516,"longitude":13.3842605,"geopoint":{"type":"Point","coordinates":[13.3842605,52.5308516]}},{"name":"Webtab","category_code":"mobile","total_money_raised":"$2M","description":"Corporate Headquarters","address1":"847 Sansome Street","address2":"Suite L","zip_code":"94111","city":"San Francisco","state_code":"CA","country_code":"USA","latitude":null,"longitude":null,"geopoint":null},{"name":"GotGame","category_code":"games_video","total_money_raised":"$1M","description":"GotGame HQ","address1":"1 Bluxome Place","address2":"Suite 204","zip_code":"94107","city":"San Francisco","state_code":"CA","country_code":"USA","latitude":37.77772,"longitude":-122.395785,"geopoint":{"type":"Point","coordinates":[-122.395785,37.77772]}},{"name":"ReverbNation","category_code":"software","total_money_raised":"$5M","description":"ReverbNation HQ","address1":"115 N Duke St.","address2":"Suite 2A","zip_code":"27701","city":"Durham","state_code":"NC","country_code":"USA","latitude":36.002893,"longitude":-78.904075,"geopoint":{"type":"Point","coordinates":[-78.904075,36.002893]}},{"name":"ReverbNation","category_code":"software","total_money_raised":"$5M","description":"ReverbNation NYC","address1":"555 8th Ave","address2":"Suite 909","zip_code":"10008","city":"New York","state_code":"NY","country_code":"USA","latitude":40.718888,"longitude":-74.001169,"geopoint":{"type":"Point","coordinates":[-74.001169,40.718888]}},{"name":"Wishabi","category_code":"ecommerce","total_money_raised":"$16M","description":"Wishabi HQ","address1":"302 The East Mall","address2":"Floor 5","zip_code":"M9B 6C7","city":"Toronto","state_code":null,"country_code":"CAN","latitude":43.644678,"longitude":-79.567221,"geopoint":{"type":"Point","coordinates":[-79.567221,43.644678]}},{"name":"ClickShift","category_code":"software","total_money_raised":"$6M","description":"","address1":"1111 Bayhill Drive","address2":"Suite 440","zip_code":"94066","city":"San Bruno","state_code":"CA","country_code":"USA","latitude":null,"longitude":null,"geopoint":null},{"name":"Games2Win","category_code":"games_video","total_money_raised":"$13M","description":"","address1":"42, Film Center,","address2":"4th Floor, 68,","zip_code":"","city":"Tardeo,Mumbai","state_code":null,"country_code":"IND","latitude":18.9742904,"longitude":72.8127265,"geopoint":{"type":"Point","coordinates":[72.8127265,18.9742904]}},{"name":"SocialGO","category_code":"social","total_money_raised":"$3M","description":"Headquarters","address1":"Lyon House","address2":"160-166 Borough High Street","zip_code":"SE1 1LB","city":"London","state_code":null,"country_code":"GBR","latitude":51.5027669,"longitude":-0.0925694,"geopoint":{"type":"Point","coordinates":[-0.0925694,51.5027669]}},{"name":"Ozone Media Solutions","category_code":"web","total_money_raised":"$4M","description":"","address1":"","address2":"","zip_code":"","city":"Mumbai","state_code":null,"country_code":"IND","latitude":19.017656,"longitude":72.856178,"geopoint":{"type":"Point","coordinates":[72.856178,19.017656]}},{"name":"Ozone Media Solutions","category_code":"web","total_money_raised":"$4M","description":"","address1":"","address2":"","zip_code":"","city":"Bangalore","state_code":null,"country_code":"IND","latitude":12.971606,"longitude":77.594376,"geopoint":{"type":"Point","coordinates":[77.594376,12.971606]}},{"name":"kidthing","category_code":"ecommerce","total_money_raised":"$3M","description":"Los Angeles Office","address1":"701 E. 3rd Street","address2":"Suite 315","zip_code":"90013","city":"Los Angeles","state_code":"CA","country_code":"USA","latitude":34.045845,"longitude":-118.237811,"geopoint":{"type":"Point","coordinates":[-118.237811,34.045845]}},{"name":"kidthing","category_code":"ecommerce","total_money_raised":"$3M","description":"Ohio Office","address1":"105 E. Main Street","address2":"Suite 201","zip_code":"45040-1965","city":"Mason","state_code":"OH","country_code":"USA","latitude":39.360128,"longitude":-84.308653,"geopoint":{"type":"Point","coordinates":[-84.308653,39.360128]}},{"name":"GlobalCrypto","category_code":"software","total_money_raised":"$1M","description":"HQ","address1":"75 5th Street NW","address2":"Suite 203","zip_code":"30308","city":"Atlanta","state_code":"GA","country_code":"USA","latitude":33.776834,"longitude":-84.3895875,"geopoint":{"type":"Point","coordinates":[-84.3895875,33.776834]}},{"name":"Flipswap","category_code":"mobile","total_money_raised":"$14M","description":"Flipswap HQ","address1":"21250 Hawthorne Blvd","address2":"Suite 800","zip_code":"90503","city":"Torrance","state_code":"CA","country_code":"USA","latitude":null,"longitude":null,"geopoint":null},{"name":"Illumix Software","category_code":"software","total_money_raised":"$3M","description":"UK Headquarters","address1":"Surrey Technology Centre","address2":"Occam Road","zip_code":"GU2 7YG","city":"Guildford","state_code":null,"country_code":"GBR","latitude":null,"longitude":null,"geopoint":null},{"name":"One True Media","category_code":"games_video","total_money_raised":"$14M","description":"","address1":"955 - A Charter Street","address2":"","zip_code":"94063","city":"Redwood City","state_code":"CA","country_code":"USA","latitude":37.485824,"longitude":-122.212095,"geopoint":{"type":"Point","coordinates":[-122.212095,37.485824]}},{"name":"KIXEYE","category_code":"games_video","total_money_raised":"$19M","description":"HQ","address1":"333 Bush Street","address2":"Floor 19","zip_code":"94104","city":"San Francisco","state_code":"CA","country_code":"USA","latitude":null,"longitude":null,"geopoint":null},{"name":"Kynetx","category_code":"software","total_money_raised":"$2M","description":"Kynetx World HQ","address1":"3098 Executive Parkway","address2":"Suite 275","zip_code":"84043","city":"Lehi","state_code":"UT","country_code":"USA","latitude":40.4273613,"longitude":-111.8967224,"geopoint":{"type":"Point","coordinates":[-111.8967224,40.4273613]}},{"name":"Darkstrand","category_code":"software","total_money_raised":"$12M","description":null,"address1":null,"address2":null,"zip_code":null,"city":null,"state_code":null,"country_code":null,"latitude":null,"longitude":null,"geopoint":null},{"name":"Synthesio","category_code":"software","total_money_raised":"$2M","description":"UK Office","address1":"50 Featherstone Street","address2":"","zip_code":"EC1Y 8RT","city":"London","state_code":null,"country_code":"GBR","latitude":null,"longitude":null,"geopoint":null},{"name":"Synthesio","category_code":"software","total_money_raised":"$2M","description":"US Office","address1":"116 West 23rd St","address2":"","zip_code":"10011","city":"New York","state_code":"NY","country_code":"USA","latitude":40.7431836,"longitude":-73.9935011,"geopoint":{"type":"Point","coordinates":[-73.9935011,40.7431836]}},{"name":"Synthesio","category_code":"software","total_money_raised":"$2M","description":"French Office","address1":"8\/10 rue Villedo","address2":"","zip_code":"75001","city":"Paris","state_code":null,"country_code":"USA","latitude":null,"longitude":null,"geopoint":null},{"name":"Synthesio","category_code":"software","total_money_raised":"$2M","description":"Singapore Office","address1":"541 Orchard Road","address2":"","zip_code":"238881","city":"Singapore","state_code":null,"country_code":"SGP","latitude":null,"longitude":null,"geopoint":null},{"name":"Virtual Bridges","category_code":"software","total_money_raised":"$4M","description":"Austin Office","address1":"6300 Bridge Point Parkway","address2":"Building 1; Suite 350","zip_code":"78730","city":"Austin","state_code":"TX","country_code":"USA","latitude":30.27995,"longitude":-97.807274,"geopoint":{"type":"Point","coordinates":[-97.807274,30.27995]}},{"name":"Ridemakerz","category_code":"ecommerce","total_money_raised":"$23M","description":"","address1":"1930 Innerbelt Business Center Drive","address2":"","zip_code":"63114","city":"Saint Louis","state_code":"MO","country_code":"USA","latitude":38.691084,"longitude":-90.354532,"geopoint":{"type":"Point","coordinates":[-90.354532,38.691084]}},{"name":"Modelinia","category_code":"web","total_money_raised":"$5M","description":"","address1":"915 Broadway,","address2":"20th Floor","zip_code":"10010","city":"New York","state_code":"NY","country_code":"USA","latitude":40.739867,"longitude":-73.990024,"geopoint":{"type":"Point","coordinates":[-73.990024,40.739867]}},{"name":"Clikthrough","category_code":"software","total_money_raised":"$2M","description":"","address1":"414 Jackson St.","address2":"Suite 402","zip_code":"94111","city":"San Francisco","state_code":"CA","country_code":"USA","latitude":37.7965781,"longitude":-122.4022856,"geopoint":{"type":"Point","coordinates":[-122.4022856,37.7965781]}},{"name":"Rudder","category_code":"web","total_money_raised":"$2M","description":"Rudder","address1":"3939 Essex Lane","address2":"Suite 190","zip_code":"77027","city":"Houston","state_code":"TX","country_code":"USA","latitude":29.739322,"longitude":-95.444747,"geopoint":{"type":"Point","coordinates":[-95.444747,29.739322]}},{"name":"Green Apple Media","category_code":"web","total_money_raised":"$132M","description":"Mother Ship","address1":"14 - 16 Lord Edward St","address2":"Dublin 2","zip_code":"D2","city":"Dublin","state_code":null,"country_code":"IRL","latitude":53.3438298,"longitude":-6.2689465,"geopoint":{"type":"Point","coordinates":[-6.2689465,53.3438298]}},{"name":"MyOtherDrive","category_code":"games_video","total_money_raised":"$1M","description":"HeadQuarters","address1":"130 W 2nd Street","address2":"Suite 999","zip_code":"45402","city":"Dayton","state_code":"OH","country_code":"USA","latitude":39.7605421,"longitude":-84.1949463,"geopoint":{"type":"Point","coordinates":[-84.1949463,39.7605421]}},{"name":"Conviva","category_code":"software","total_money_raised":"$59M","description":"HQ","address1":"Two Waters Park Drive","address2":"Suite 150","zip_code":"94403","city":"San Mateo","state_code":"CA","country_code":"USA","latitude":37.552806,"longitude":-122.2916021,"geopoint":{"type":"Point","coordinates":[-122.2916021,37.552806]}},{"name":"Robotgalaxy","category_code":"games_video","total_money_raised":"$12M","description":"","address1":"41 Union Square West,","address2":"Suite 808","zip_code":"10003","city":"New York","state_code":"NY","country_code":"USA","latitude":40.737216,"longitude":-73.990947,"geopoint":{"type":"Point","coordinates":[-73.990947,40.737216]}},{"name":"Klout","category_code":"social","total_money_raised":"$40M","description":"","address1":"77 Stillman St.","address2":"","zip_code":"94103","city":"San Francisco","state_code":"CA","country_code":"USA","latitude":34.0497638,"longitude":-118.2474287,"geopoint":{"type":"Point","coordinates":[-118.2474287,34.0497638]}},{"name":"Iken Solutions","category_code":"software","total_money_raised":"$2M","description":"iKen Solutions - India","address1":"CM-5, Third Floor, SINE, CSRE Building","address2":"Indian Institute of Technology Bombay","zip_code":"","city":"Powai, Mumbai - 400 076","state_code":null,"country_code":"IND","latitude":null,"longitude":null,"geopoint":null},{"name":"Iken Solutions","category_code":"software","total_money_raised":"$2M","description":"iKen Solutions - Americas","address1":"Blanco Encalada 88, Piso 1, Oficina 6, Boulogne","address2":"","zip_code":"","city":"Buenos Aires","state_code":null,"country_code":"ARG","latitude":-34.4942649,"longitude":-58.5511077,"geopoint":{"type":"Point","coordinates":[-58.5511077,-34.4942649]}},{"name":"Jasper Wireless","category_code":"mobile","total_money_raised":"$155M","description":"Headquarters:","address1":"Jasper Wireless, Inc","address2":"189 North Bernardo Avenue, Suite 150","zip_code":"94043","city":"Mountain View","state_code":"CA","country_code":"USA","latitude":37.394392,"longitude":-122.04221,"geopoint":{"type":"Point","coordinates":[-122.04221,37.394392]}},{"name":"Jasper Wireless","category_code":"mobile","total_money_raised":"$155M","description":"Georgia office:","address1":"Northwinds V (Building 500)","address2":"11625 Rainwater Drive, Suite 650","zip_code":"30009","city":"Alpharetta","state_code":"GA","country_code":"USA","latitude":null,"longitude":null,"geopoint":null},{"name":"Dragonfly","category_code":"web","total_money_raised":"$3M","description":"","address1":"","address2":"","zip_code":"","city":"New York","state_code":"NY","country_code":"USA","latitude":40.756054,"longitude":-73.986951,"geopoint":{"type":"Point","coordinates":[-73.986951,40.756054]}},{"name":"Kickfire","category_code":"software","total_money_raised":"$20M","description":"","address1":"2055 Laurelwood Road","address2":"Suite 150","zip_code":"95054","city":"Santa Clara","state_code":"CA","country_code":"USA","latitude":37.381876,"longitude":-121.95993,"geopoint":{"type":"Point","coordinates":[-121.95993,37.381876]}},{"name":"RingCube Technologies","category_code":"software","total_money_raised":"$26M","description":"HQ","address1":"100 W Evelyn Ave.","address2":"Suite 210","zip_code":"94041","city":"Mountain View","state_code":"CA","country_code":"USA","latitude":37.3915589,"longitude":-122.0702643,"geopoint":{"type":"Point","coordinates":[-122.0702643,37.3915589]}},{"name":"Cognitive Networks","category_code":"network_hosting","total_money_raised":"$6M","description":"Headquarters","address1":"1663 Mission Street","address2":"Suite 520","zip_code":"94103","city":"San Francisco","state_code":"CA","country_code":"USA","latitude":null,"longitude":null,"geopoint":null},{"name":"Mu Dynamics","category_code":"network_hosting","total_money_raised":"$24M","description":"","address1":"686 W. Maude Avenue","address2":"Suite #104","zip_code":"94085","city":"Sunnyvale","state_code":"CA","country_code":"USA","latitude":37.390233,"longitude":-122.033741,"geopoint":{"type":"Point","coordinates":[-122.033741,37.390233]}},{"name":"5th Finger","category_code":"mobile","total_money_raised":"$7M","description":"Headquarters","address1":"222 Sutter St Suite 450","address2":"","zip_code":"94108","city":"San Francisco","state_code":"CA","country_code":"USA","latitude":37.7900992,"longitude":-122.4021988,"geopoint":{"type":"Point","coordinates":[-122.4021988,37.7900992]}},{"name":"Pano Logic","category_code":"software","total_money_raised":"$38M","description":"Corporate Headquarters","address1":"1350 Willow Road, Suite 202","address2":"","zip_code":"94025","city":"Menlo Park","state_code":"CA","country_code":"USA","latitude":37.477037,"longitude":-122.15164,"geopoint":{"type":"Point","coordinates":[-122.15164,37.477037]}},{"name":"Tudou","category_code":"games_video","total_money_raised":"$126M","description":"","address1":"","address2":"","zip_code":"","city":"","state_code":null,"country_code":"CHN","latitude":null,"longitude":null,"geopoint":null},{"name":"SundaySky","category_code":"software","total_money_raised":"$37M","description":"Headquarters","address1":"242 W. 27th ST","address2":"Floor 6","zip_code":"10001","city":"New York","state_code":"NY","country_code":"USA","latitude":null,"longitude":null,"geopoint":null},{"name":"SundaySky","category_code":"software","total_money_raised":"$37M","description":"Technology Center","address1":"8 HaBarzel St.","address2":"Bldg. B, 5th Floor","zip_code":"6971012","city":"Tel Aviv","state_code":null,"country_code":"ISR","latitude":32.1115098,"longitude":34.8388443,"geopoint":{"type":"Point","coordinates":[34.8388443,32.1115098]}},{"name":"Azalea Networks","category_code":"network_hosting","total_money_raised":"$15M","description":"","address1":"673 S. Milpitas Blvd,","address2":"Suite 105","zip_code":"95035","city":"Milpitas","state_code":"CA","country_code":"USA","latitude":37.423135,"longitude":-121.894792,"geopoint":{"type":"Point","coordinates":[-121.894792,37.423135]}},{"name":"ScaleMP","category_code":"software","total_money_raised":"$8M","description":"","address1":"20863 Stevens Creek Blvd.","address2":"Suite 275","zip_code":"95014","city":"Cupertino","state_code":"CA","country_code":"USA","latitude":37.3229727,"longitude":-122.0385792,"geopoint":{"type":"Point","coordinates":[-122.0385792,37.3229727]}},{"name":"Brash Entertainment","category_code":"games_video","total_money_raised":"$400M","description":null,"address1":null,"address2":null,"zip_code":null,"city":null,"state_code":null,"country_code":null,"latitude":null,"longitude":null,"geopoint":null},{"name":"Voxer LLC","category_code":"mobile","total_money_raised":"$30M","description":"San Francisco Office","address1":"760 Market Street, 5th Floor","address2":"","zip_code":"94102","city":"San Francisco","state_code":"CA","country_code":"USA","latitude":null,"longitude":null,"geopoint":null},{"name":"Skout","category_code":"social","total_money_raised":"$22M","description":"Headquarters","address1":"301 Howard","address2":"Suite 1500","zip_code":"94105","city":"San Francisco","state_code":"CA","country_code":"USA","latitude":37.7800539,"longitude":-122.3912492,"geopoint":{"type":"Point","coordinates":[-122.3912492,37.7800539]}},{"name":"Skout","category_code":"social","total_money_raised":"$22M","description":"","address1":"","address2":"","zip_code":"","city":"Sofia","state_code":null,"country_code":"BGR","latitude":null,"longitude":null,"geopoint":null},{"name":"Skout","category_code":"social","total_money_raised":"$22M","description":"","address1":"","address2":"","zip_code":"","city":"Santiago","state_code":null,"country_code":"CHL","latitude":null,"longitude":null,"geopoint":null},{"name":"ZinkoTek","category_code":"web","total_money_raised":"$2M","description":"","address1":"4328 Redwood Hwy.","address2":"Suite 400","zip_code":"94903","city":"San Rafael","state_code":"CA","country_code":"USA","latitude":38.0148706,"longitude":-122.5411756,"geopoint":{"type":"Point","coordinates":[-122.5411756,38.0148706]}},{"name":"HeySpace","category_code":"web","total_money_raised":"$20M","description":"","address1":"9F, Tower A, Guangzhou Information Port","address2":"No16 KeYun Road","zip_code":"","city":"Guangzhou","state_code":null,"country_code":"CHN","latitude":null,"longitude":null,"geopoint":null},{"name":"Neuralitic Systems","category_code":"mobile","total_money_raised":"$18M","description":"Headquarters","address1":"507, Place D'Armes","address2":"16th Floor","zip_code":"H2Y 2W8","city":"Montr\u00c3\u00a9al, Qc","state_code":null,"country_code":"CAN","latitude":45.5044288,"longitude":-73.5570651,"geopoint":{"type":"Point","coordinates":[-73.5570651,45.5044288]}},{"name":"Appscio","category_code":"software","total_money_raised":"$7M","description":"HQ","address1":"80 Airport Boulevard,","address2":"Suite 206A","zip_code":"95019-2901","city":"Freedom","state_code":"CA","country_code":"USA","latitude":36.9397206,"longitude":-121.7768449,"geopoint":{"type":"Point","coordinates":[-121.7768449,36.9397206]}},{"name":"FastScaleTechnology","category_code":"software","total_money_raised":"$12M","description":"Headquarters","address1":"2550 Walsh Ave, Suite 100","address2":"","zip_code":"95051","city":"Santa Clara","state_code":"CA","country_code":"USA","latitude":37.370056,"longitude":-121.973157,"geopoint":{"type":"Point","coordinates":[-121.973157,37.370056]}},{"name":"Ohai","category_code":"games_video","total_money_raised":"$6M","description":null,"address1":null,"address2":null,"zip_code":null,"city":null,"state_code":null,"country_code":null,"latitude":null,"longitude":null,"geopoint":null},{"name":"SpaceClaim","category_code":"software","total_money_raised":"$49M","description":"HQ","address1":"150 Baker Ave. Ext.","address2":"","zip_code":"01742","city":"Concord","state_code":"MA","country_code":"USA","latitude":42.462373,"longitude":-71.387308,"geopoint":{"type":"Point","coordinates":[-71.387308,42.462373]}},{"name":"Virtual Computer","category_code":"software","total_money_raised":"$21M","description":"HQ","address1":"Primrose Park 3 LAN Drive","address2":"Suite 300","zip_code":"01886","city":"Westford","state_code":"MA","country_code":"USA","latitude":null,"longitude":null,"geopoint":null},{"name":"Carrier IQ","category_code":"mobile","total_money_raised":"$42M","description":"","address1":"1200 Villa Street","address2":"","zip_code":"94041","city":"Mountain View","state_code":"CA","country_code":"USA","latitude":37.3955775,"longitude":-122.0833286,"geopoint":{"type":"Point","coordinates":[-122.0833286,37.3955775]}},{"name":"Qihoo 360 Technology","category_code":"web","total_money_raised":"$575M","description":null,"address1":null,"address2":null,"zip_code":null,"city":null,"state_code":null,"country_code":null,"latitude":null,"longitude":null,"geopoint":null},{"name":"Etology","category_code":"web","total_money_raised":"$4M","description":"Headquarters","address1":"1065 East Hillsdale Blvd.","address2":"Suite 301","zip_code":"94404","city":"Foster City","state_code":"CA","country_code":"USA","latitude":37.561111,"longitude":-122.270487,"geopoint":{"type":"Point","coordinates":[-122.270487,37.561111]}},{"name":"Gecko Audio","category_code":"software","total_money_raised":"$3M","description":"","address1":"","address2":"","zip_code":"","city":"Palo Alto","state_code":"CA","country_code":"USA","latitude":37.437328,"longitude":-122.159928,"geopoint":{"type":"Point","coordinates":[-122.159928,37.437328]}},{"name":"Space-Time Insight","category_code":"software","total_money_raised":"$42M","description":"Space-Time Insight","address1":"1850 Gateway Dr","address2":"Suite 150","zip_code":"94404","city":"San Mateo","state_code":"CA","country_code":"USA","latitude":37.555773,"longitude":-122.27977,"geopoint":{"type":"Point","coordinates":[-122.27977,37.555773]}},{"name":"WANdisco","category_code":"software","total_money_raised":"$45M","description":"US HQ","address1":"5000 Executive Pkwy","address2":"Suite 205","zip_code":"94583","city":"San Ramon","state_code":"CA","country_code":"USA","latitude":37.769205,"longitude":-121.966395,"geopoint":{"type":"Point","coordinates":[-121.966395,37.769205]}},{"name":"WANdisco","category_code":"software","total_money_raised":"$45M","description":"UK HQ","address1":"Electric Works","address2":"Sheffield Digital Campus","zip_code":"S1 2BJ","city":"Sheffield","state_code":null,"country_code":"GBR","latitude":53.3800107,"longitude":-1.4629301,"geopoint":{"type":"Point","coordinates":[-1.4629301,53.3800107]}},{"name":"Fortumo","category_code":"mobile","total_money_raised":"$10M","description":"Europe","address1":"\u00dclikooli 6A","address2":"","zip_code":"51003","city":"Tartu","state_code":null,"country_code":"EST","latitude":58.3754107,"longitude":26.7212208,"geopoint":{"type":"Point","coordinates":[26.7212208,58.3754107]}},{"name":"Fortumo","category_code":"mobile","total_money_raised":"$10M","description":"USA","address1":"625 2nd Street","address2":"","zip_code":"94107","city":"San Francisco","state_code":"CA","country_code":"USA","latitude":59.42145,"longitude":24.8021233,"geopoint":{"type":"Point","coordinates":[24.8021233,59.42145]}},{"name":"Fortumo","category_code":"mobile","total_money_raised":"$10M","description":"Asia","address1":"Datun Road 222","address2":"","zip_code":"","city":"Beijing","state_code":null,"country_code":"CHN","latitude":null,"longitude":null,"geopoint":null},{"name":"Pollsb","category_code":"network_hosting","total_money_raised":"$2M","description":"Tel Aviv office","address1":"3 Daniel Frish St.","address2":"13th fl. (RGE)","zip_code":"64731","city":"Tel Aviv","state_code":null,"country_code":"ISR","latitude":null,"longitude":null,"geopoint":null},{"name":"BASH Gaming","category_code":"games_video","total_money_raised":"$1M","description":"US Office","address1":"","address2":"","zip_code":"94555","city":"Fremont","state_code":"CA","country_code":"USA","latitude":37.5561712,"longitude":-122.0780632,"geopoint":{"type":"Point","coordinates":[-122.0780632,37.5561712]}},{"name":"BASH Gaming","category_code":"games_video","total_money_raised":"$1M","description":"India Office","address1":"","address2":"","zip_code":"","city":"Bangalore","state_code":null,"country_code":"IND","latitude":12.971606,"longitude":77.594376,"geopoint":{"type":"Point","coordinates":[77.594376,12.971606]}},{"name":"Pocket Communications Northeast","category_code":"mobile","total_money_raised":"$125M","description":"USA Headquarters","address1":"1280 Blue Hills Ave","address2":"","zip_code":"06002","city":"Bloomfield","state_code":"CT","country_code":"USA","latitude":41.853615,"longitude":-72.70375,"geopoint":{"type":"Point","coordinates":[-72.70375,41.853615]}},{"name":"Kashless","category_code":"ecommerce","total_money_raised":"$9M","description":"World Headquarters","address1":"106 West Roy St.","address2":"","zip_code":"98119","city":"Seattle","state_code":"WA","country_code":"USA","latitude":47.6257402,"longitude":-122.3581623,"geopoint":{"type":"Point","coordinates":[-122.3581623,47.6257402]}},{"name":"Avere Systems","category_code":"network_hosting","total_money_raised":"$37M","description":"Headquarters","address1":"910 River Avenue","address2":"","zip_code":"15212","city":"Pittsburgh","state_code":"PA","country_code":"USA","latitude":40.532969,"longitude":-80.010645,"geopoint":{"type":"Point","coordinates":[-80.010645,40.532969]}},{"name":"Viridity Software","category_code":"software","total_money_raised":"$15M","description":"Corporate Headquarters","address1":"5 Burlington Woods Suite 205","address2":"","zip_code":"01803","city":"Burlington","state_code":"MA","country_code":"USA","latitude":42.4871509,"longitude":-71.1986329,"geopoint":{"type":"Point","coordinates":[-71.1986329,42.4871509]}},{"name":"IGLOO Software","category_code":"software","total_money_raised":"$9M","description":"Headquarter","address1":"22 Frederick Street","address2":"6 Floor","zip_code":"N2H 6M6","city":"Kitchener","state_code":null,"country_code":"CAN","latitude":43.4496954,"longitude":-80.487328,"geopoint":{"type":"Point","coordinates":[-80.487328,43.4496954]}},{"name":"Lush Technologies","category_code":"ecommerce","total_money_raised":"$2M","description":null,"address1":null,"address2":null,"zip_code":null,"city":null,"state_code":null,"country_code":null,"latitude":null,"longitude":null,"geopoint":null},{"name":"Evostor","category_code":"software","total_money_raised":"$8M","description":"","address1":"1901 S. Bascom Ave","address2":"Suite 1220","zip_code":"95008","city":"Campbell","state_code":"CA","country_code":"USA","latitude":37.232902,"longitude":-121.964385,"geopoint":{"type":"Point","coordinates":[-121.964385,37.232902]}},{"name":"Jama Software","category_code":"software","total_money_raised":"$13M","description":"Headquarters","address1":"1060 NW 9th Avenue","address2":"","zip_code":"97209","city":"Portland","state_code":"OR","country_code":"USA","latitude":45.5309644,"longitude":-122.68038,"geopoint":{"type":"Point","coordinates":[-122.68038,45.5309644]}},{"name":"Tongxue","category_code":"web","total_money_raised":"$6M","description":null,"address1":null,"address2":null,"zip_code":null,"city":null,"state_code":null,"country_code":null,"latitude":null,"longitude":null,"geopoint":null},{"name":"Foursquare","category_code":"mobile","total_money_raised":"$147M","description":"","address1":"568 Broadway","address2":"","zip_code":"10012","city":"New York","state_code":"NY","country_code":"USA","latitude":null,"longitude":null,"geopoint":null},{"name":"Foursquare","category_code":"mobile","total_money_raised":"$147M","description":"","address1":"363 Clementina St","address2":"","zip_code":"94013","city":"San Francisco","state_code":"CA","country_code":"USA","latitude":null,"longitude":null,"geopoint":null},{"name":"CashStar","category_code":"ecommerce","total_money_raised":"$26M","description":"HQ","address1":"129 Middle St","address2":"2nd Floor","zip_code":"04101","city":"Portland","state_code":"ME","country_code":"USA","latitude":null,"longitude":null,"geopoint":null},{"name":"mSnap","category_code":"mobile","total_money_raised":"$5M","description":"Denver","address1":"1350 17th Street","address2":"Suite 101","zip_code":"80202","city":"Denver","state_code":"CO","country_code":"USA","latitude":null,"longitude":null,"geopoint":null},{"name":"Infobright","category_code":"software","total_money_raised":"$21M","description":"Headquarters","address1":"403-47 Colborne Street","address2":"","zip_code":"M5E1P8","city":"Toronto, Ontario","state_code":null,"country_code":"CAN","latitude":43.6490631,"longitude":-79.3749698,"geopoint":{"type":"Point","coordinates":[-79.3749698,43.6490631]}},{"name":"Infobright","category_code":"software","total_money_raised":"$21M","description":"US Office","address1":"200 S. Wacker Drive","address2":"15th Floor","zip_code":"60606","city":"Chicago","state_code":"IL","country_code":"USA","latitude":42.377467,"longitude":-71.401307,"geopoint":{"type":"Point","coordinates":[-71.401307,42.377467]}},{"name":"Transfer To","category_code":"mobile","total_money_raised":"$3M","description":"Singapore","address1":"600 North Bridge Road","address2":"Parkview Square #05-02","zip_code":"188778","city":"Singapore","state_code":null,"country_code":"SGP","latitude":1.3006925,"longitude":103.8575356,"geopoint":{"type":"Point","coordinates":[103.8575356,1.3006925]}},{"name":"Transfer To","category_code":"mobile","total_money_raised":"$3M","description":"United States","address1":"101 University Ave","address2":"Suite 210","zip_code":"94301","city":"Palo Alto","state_code":"CA","country_code":"USA","latitude":40.705255,"longitude":-74.010983,"geopoint":{"type":"Point","coordinates":[-74.010983,40.705255]}},{"name":"Tongal","category_code":"web","total_money_raised":"$16M","description":"Headquarters","address1":"1918 Main Street","address2":"2nd Floor","zip_code":"90405","city":"Santa Monica","state_code":"CA","country_code":"USA","latitude":34.007112,"longitude":-118.489748,"geopoint":{"type":"Point","coordinates":[-118.489748,34.007112]}},{"name":"Openbravo","category_code":"software","total_money_raised":"$17M","description":"Branch","address1":"Pau Claris 138","address2":"","zip_code":"08009","city":"Barcelona","state_code":null,"country_code":"ESP","latitude":41.3935324,"longitude":2.1660785,"geopoint":{"type":"Point","coordinates":[2.1660785,41.3935324]}},{"name":"Openbravo","category_code":"software","total_money_raised":"$17M","description":"HQ","address1":"Ed. SLAN, Calle J","address2":"Landaben","zip_code":"31012","city":"Pamplona","state_code":null,"country_code":"ESP","latitude":null,"longitude":null,"geopoint":null},{"name":"One Kings Lane","category_code":"ecommerce","total_money_raised":"$113M","description":"HQ","address1":"1355 Market St","address2":"","zip_code":"94103","city":"San Francisco","state_code":"CA","country_code":"USA","latitude":null,"longitude":null,"geopoint":null},{"name":"One Kings Lane","category_code":"ecommerce","total_money_raised":"$113M","description":"New York Office","address1":"205 Hudson Street","address2":"","zip_code":"10013","city":"New York","state_code":"NY","country_code":"USA","latitude":null,"longitude":null,"geopoint":null},{"name":"One Kings Lane","category_code":"ecommerce","total_money_raised":"$113M","description":"Los Angeles Office","address1":"9560 Wilshire Boulevard","address2":"","zip_code":"90212","city":"Beverly Hills","state_code":"CA","country_code":"USA","latitude":null,"longitude":null,"geopoint":null},{"name":"HootSuite","category_code":"social","total_money_raised":"$190M","description":"HootSuite Media, Inc.","address1":"5 East 8th Avenue","address2":"","zip_code":"V5T4S8","city":"Vancouver","state_code":null,"country_code":"CAN","latitude":49.2851733,"longitude":-123.0952381,"geopoint":{"type":"Point","coordinates":[-123.0952381,49.2851733]}},{"name":"Brandsclub","category_code":"ecommerce","total_money_raised":"$17M","description":"","address1":"","address2":"","zip_code":"","city":"Sao Paulo","state_code":null,"country_code":"BRA","latitude":-23.5489433,"longitude":-46.6388182,"geopoint":{"type":"Point","coordinates":[-46.6388182,-23.5489433]}},{"name":"Smallaa","category_code":"web","total_money_raised":"$3M","description":"Smallaa Inc","address1":"2860 Zanker Road Ste 108","address2":"","zip_code":"95134","city":"San Jose","state_code":"CA","country_code":"USA","latitude":37.39458,"longitude":-121.928393,"geopoint":{"type":"Point","coordinates":[-121.928393,37.39458]}},{"name":"Phurnace Software","category_code":"software","total_money_raised":"$10M","description":"HQ","address1":"707 Rio Grande,","address2":"Suite 100","zip_code":"78701","city":"Austin","state_code":"TX","country_code":"USA","latitude":30.271393,"longitude":-97.748623,"geopoint":{"type":"Point","coordinates":[-97.748623,30.271393]}},{"name":"Gear6","category_code":"network_hosting","total_money_raised":"$20M","description":"Headquarters","address1":"526 Clyde Avenue","address2":"","zip_code":"94043","city":"Mountain View","state_code":"CA","country_code":"USA","latitude":37.389615,"longitude":-122.050179,"geopoint":{"type":"Point","coordinates":[-122.050179,37.389615]}},{"name":"KupiVIP","category_code":"ecommerce","total_money_raised":"$120M","description":"Headquarters","address1":"Moscow, Samokatnaya st., h. 1\/21","address2":"","zip_code":"","city":"Moscow","state_code":null,"country_code":"RUS","latitude":null,"longitude":null,"geopoint":null},{"name":"We Are Hunted","category_code":"games_video","total_money_raised":"$3M","description":"San Francisco","address1":"","address2":"","zip_code":"","city":"","state_code":"CA","country_code":"USA","latitude":null,"longitude":null,"geopoint":null},{"name":"Zencoder","category_code":"software","total_money_raised":"$2M","description":"","address1":"","address2":"","zip_code":"94103","city":"San Francisco","state_code":"CA","country_code":"USA","latitude":null,"longitude":null,"geopoint":null},{"name":"Transcepta","category_code":"software","total_money_raised":"$3M","description":"HQ","address1":"65 Enterprise","address2":"","zip_code":"92656","city":"Aliso Viejo","state_code":"CA","country_code":"USA","latitude":null,"longitude":null,"geopoint":null},{"name":"Busca Corp","category_code":"games_video","total_money_raised":"$5M","description":"Busca Corp. USA","address1":"7590 Fay Ave. Suite 506","address2":"","zip_code":"92037","city":"La Jolla","state_code":"CA","country_code":"USA","latitude":32.841791,"longitude":-117.274602,"geopoint":{"type":"Point","coordinates":[-117.274602,32.841791]}},{"name":"Busca Corp","category_code":"games_video","total_money_raised":"$5M","description":"Busca Corp. Tijuana","address1":"Calle Brasil No. 8471","address2":"Col. Juarez","zip_code":"22040","city":"Tijuana, B.C.","state_code":null,"country_code":"MEX","latitude":32.5217442,"longitude":-117.0274947,"geopoint":{"type":"Point","coordinates":[-117.0274947,32.5217442]}},{"name":"Busca Corp","category_code":"games_video","total_money_raised":"$5M","description":"Busca Corp. Mexico City","address1":"Insurgentes Sur 348 Piso 9","address2":"Col. Roma","zip_code":"06700","city":"Mexico City","state_code":null,"country_code":"MEX","latitude":19.4164309,"longitude":-99.1651395,"geopoint":{"type":"Point","coordinates":[-99.1651395,19.4164309]}},{"name":"Linekong","category_code":"games_video","total_money_raised":"$40M","description":"Corporate Office","address1":"Floor10\/11, Capital Development Tower","address2":"Zhongguancun","zip_code":"","city":"Haidian, beijing","state_code":null,"country_code":"CHN","latitude":null,"longitude":null,"geopoint":null},{"name":"Square","category_code":"mobile","total_money_raised":"$341M","description":"Corporate Office","address1":"1455 Market Street","address2":"","zip_code":"94103","city":"San Francisco","state_code":"CA","country_code":"USA","latitude":null,"longitude":null,"geopoint":null},{"name":"Square","category_code":"mobile","total_money_raised":"$341M","description":"","address1":"","address2":"","zip_code":"","city":"New York","state_code":"NY","country_code":"USA","latitude":null,"longitude":null,"geopoint":null},{"name":"Square","category_code":"mobile","total_money_raised":"$341M","description":"","address1":"","address2":"","zip_code":"","city":"Waterloo","state_code":null,"country_code":"CAN","latitude":null,"longitude":null,"geopoint":null},{"name":"ColdLight Solutions","category_code":"software","total_money_raised":"$11M","description":"Headquarters","address1":"656 E Swedesford Rd","address2":"Suite 120","zip_code":"19087","city":"Wayne","state_code":"PA","country_code":"USA","latitude":40.075096,"longitude":-75.42402,"geopoint":{"type":"Point","coordinates":[-75.42402,40.075096]}},{"name":"VKernel Corporation","category_code":"software","total_money_raised":"$7M","description":"VKernel, a part of Dell","address1":"285 Summer Street","address2":"","zip_code":"02210","city":"Boston","state_code":"MA","country_code":"USA","latitude":42.3497366,"longitude":-71.0491901,"geopoint":{"type":"Point","coordinates":[-71.0491901,42.3497366]}},{"name":"Siklu","category_code":"mobile","total_money_raised":"$31M","description":"Corporate Headquarters","address1":"43 Hasivim St","address2":"","zip_code":"49517","city":"Petach Tikva","state_code":null,"country_code":"ISR","latitude":null,"longitude":null,"geopoint":null},{"name":"First Coverage","category_code":"software","total_money_raised":"$14M","description":"Corporate Headquarters","address1":"30 St Clair Avenue West","address2":"Suite 103","zip_code":"M4V 3A1","city":"Toronto, ON","state_code":null,"country_code":"CAN","latitude":43.6878093,"longitude":-79.3958388,"geopoint":{"type":"Point","coordinates":[-79.3958388,43.6878093]}},{"name":"First Coverage","category_code":"software","total_money_raised":"$14M","description":"US Headquarters","address1":"260 Franklin St.","address2":"Suite 900","zip_code":"02110-3112","city":"Boston","state_code":"MA","country_code":"USA","latitude":42.356931,"longitude":-71.053991,"geopoint":{"type":"Point","coordinates":[-71.053991,42.356931]}},{"name":"Playdom","category_code":"games_video","total_money_raised":"$76M","description":"Palo Alto - Headquarters","address1":"395 Page Mill Road","address2":"2nd Floor","zip_code":"94306","city":"Palo Alto","state_code":"CA","country_code":"USA","latitude":37.393536,"longitude":-122.076747,"geopoint":{"type":"Point","coordinates":[-122.076747,37.393536]}},{"name":"Playdom","category_code":"games_video","total_money_raised":"$76M","description":"Playdom South","address1":"415 S Cedros Ave","address2":"","zip_code":"92075","city":"Solana Beach","state_code":"CA","country_code":"USA","latitude":null,"longitude":null,"geopoint":null},{"name":"Marketcetera","category_code":"software","total_money_raised":"$4M","description":"San Francisco","address1":"28 2nd Street","address2":"3rd Floor","zip_code":"94105","city":"San Francisco","state_code":"CA","country_code":"USA","latitude":37.788864,"longitude":-122.4008487,"geopoint":{"type":"Point","coordinates":[-122.4008487,37.788864]}},{"name":"Veeva","category_code":"software","total_money_raised":"$4M","description":"Corporate Headquarters","address1":"4637 Chabot Drive","address2":"Suite 210","zip_code":"94588","city":"Pleasanton","state_code":"CA","country_code":"USA","latitude":37.69249,"longitude":-121.900722,"geopoint":{"type":"Point","coordinates":[-121.900722,37.69249]}},{"name":"Veeva","category_code":"software","total_money_raised":"$4M","description":"Europe Headquarters","address1":"Avinguda Diagonal 420","address2":"","zip_code":"08037","city":"Barcelona","state_code":null,"country_code":"ESP","latitude":null,"longitude":null,"geopoint":null},{"name":"Veeva","category_code":"software","total_money_raised":"$4M","description":"China Headquarters","address1":"Room 1707, 17F United Plaza","address2":"1498 Nan Jing Rd West","zip_code":"2000040","city":"Jing An District Shang Hai","state_code":null,"country_code":"CHN","latitude":null,"longitude":null,"geopoint":null},{"name":"Veeva","category_code":"software","total_money_raised":"$4M","description":"Japan Headquarters","address1":"1-9 Gobancho 5F","address2":"","zip_code":"102-0076","city":"Chiyodaku, Tokyo","state_code":null,"country_code":"JPN","latitude":null,"longitude":null,"geopoint":null},{"name":"Saavn","category_code":"games_video","total_money_raised":"$6M","description":"Corporate Headquarters","address1":"","address2":"","zip_code":"10016","city":"New York","state_code":"NY","country_code":"USA","latitude":40.743877,"longitude":-73.98618,"geopoint":{"type":"Point","coordinates":[-73.98618,40.743877]}},{"name":"Rupeetalk","category_code":"web","total_money_raised":"$1M","description":null,"address1":null,"address2":null,"zip_code":null,"city":null,"state_code":null,"country_code":null,"latitude":null,"longitude":null,"geopoint":null},{"name":"CarWale","category_code":"ecommerce","total_money_raised":"$7M","description":"Corporate Office","address1":"Automotive Exchange Pvt Ltd, 11th floor, Vishwaroop IT Park,","address2":"Sector 30A, Vashi","zip_code":"400705","city":"Navi Mumbai","state_code":null,"country_code":"IND","latitude":null,"longitude":null,"geopoint":null},{"name":"Libox","category_code":"web","total_money_raised":"$2M","description":"","address1":"","address2":"","zip_code":"","city":"Tel Aviv","state_code":null,"country_code":"ISR","latitude":null,"longitude":null,"geopoint":null},{"name":"Quirky","category_code":"ecommerce","total_money_raised":"$175M","description":"World Headquarters","address1":"606 West 28th Street","address2":"7th Floor","zip_code":"10012","city":"New York","state_code":"NY","country_code":"USA","latitude":null,"longitude":null,"geopoint":null},{"name":"WorldWide Biggies","category_code":"games_video","total_money_raised":"$9M","description":"HQ","address1":"545 West 45th Street","address2":"5th Floor","zip_code":"10036","city":"New York","state_code":"NY","country_code":"USA","latitude":null,"longitude":null,"geopoint":null},{"name":"isango!","category_code":"web","total_money_raised":"$8M","description":"London","address1":"48-54 Charlotte Street","address2":"","zip_code":"W1T2NS","city":"London","state_code":null,"country_code":"GBR","latitude":51.519816,"longitude":-0.1361616,"geopoint":{"type":"Point","coordinates":[-0.1361616,51.519816]}},{"name":"Witel","category_code":"mobile","total_money_raised":"$4M","description":null,"address1":null,"address2":null,"zip_code":null,"city":null,"state_code":null,"country_code":null,"latitude":null,"longitude":null,"geopoint":null},{"name":"Vizerra","category_code":"software","total_money_raised":"$16M","description":"Head Office","address1":"505 Montgomery Street Suite 1100","address2":"","zip_code":"CA 94111","city":"San-Francisco","state_code":"CA","country_code":"USA","latitude":null,"longitude":null,"geopoint":null},{"name":"Moviepilot","category_code":"web","total_money_raised":"$7M","description":"German Headquarters","address1":"Mehringdamm 33","address2":"","zip_code":"10961","city":"Berlin","state_code":null,"country_code":"DEU","latitude":52.4947266,"longitude":13.398504,"geopoint":{"type":"Point","coordinates":[13.398504,52.4947266]}},{"name":"Moviepilot","category_code":"web","total_money_raised":"$7M","description":"US Office","address1":"","address2":"","zip_code":"","city":"Los Angeles","state_code":"CA","country_code":"USA","latitude":34.0522342,"longitude":-118.2436849,"geopoint":{"type":"Point","coordinates":[-118.2436849,34.0522342]}},{"name":"UQ Communications","category_code":"mobile","total_money_raised":"$43M","description":"Headquarters","address1":"Shinagawa East One Tower","address2":"2-16-1 Konan,  Minato-ku","zip_code":"108-0075","city":"Tokyo","state_code":null,"country_code":"JPN","latitude":null,"longitude":null,"geopoint":null},{"name":"DoNanza","category_code":"web","total_money_raised":"$1M","description":"Israel Office","address1":"Gruzenberg Str.","address2":"","zip_code":"67448","city":"Tel Aviv","state_code":null,"country_code":"ISR","latitude":null,"longitude":null,"geopoint":null},{"name":"CrowdGather","category_code":"web","total_money_raised":"$18M","description":"HQ","address1":"20300 Ventura Blvd. Suite 330","address2":"","zip_code":"91364","city":"Woodland Hills","state_code":"CA","country_code":"USA","latitude":34.168955,"longitude":-118.575293,"geopoint":{"type":"Point","coordinates":[-118.575293,34.168955]}},{"name":"Azingo","category_code":"mobile","total_money_raised":"$80M","description":"Headquarters","address1":"640 W. California Ave #100","address2":"","zip_code":"94086","city":"Sunnyvale","state_code":"CA","country_code":"USA","latitude":37.382162,"longitude":-122.036301,"geopoint":{"type":"Point","coordinates":[-122.036301,37.382162]}},{"name":"VIVA","category_code":"games_video","total_money_raised":"$40M","description":"","address1":"1019 Tower B, ChaoWai SOHO","address2":"6\/B ChaoWai Street","zip_code":"","city":"Beijing","state_code":null,"country_code":"CHN","latitude":null,"longitude":null,"geopoint":null},{"name":"Mobiles Republic","category_code":"mobile","total_money_raised":"$9M","description":"","address1":"2, Rue Robert Caumont","address2":"","zip_code":"33049","city":"Bordeaux Cedex","state_code":null,"country_code":"FRA","latitude":44.8743952,"longitude":-0.5754294,"geopoint":{"type":"Point","coordinates":[-0.5754294,44.8743952]}},{"name":"Flirtomatic","category_code":"social","total_money_raised":"$9M","description":"","address1":"Centre Point, 4th Floor","address2":"103 New Oxford Street","zip_code":"WC1A 1DD","city":"London","state_code":null,"country_code":"GBR","latitude":51.5272363,"longitude":-0.0956262,"geopoint":{"type":"Point","coordinates":[-0.0956262,51.5272363]}},{"name":"MojoPages","category_code":"web","total_money_raised":"$5M","description":"MojoPages.com","address1":"9645 Scranton Rd","address2":"Suite 110","zip_code":"92121","city":"San Diego","state_code":"CA","country_code":"USA","latitude":null,"longitude":null,"geopoint":null},{"name":"MojoPages","category_code":"web","total_money_raised":"$5M","description":"MojoPages.com Los Angeles","address1":"23622 Park Sorrento","address2":"Suite 149","zip_code":"91302","city":"Calabassas","state_code":"CA","country_code":"USA","latitude":null,"longitude":null,"geopoint":null},{"name":"High Gear Media","category_code":"web","total_money_raised":"$12M","description":"","address1":"830 Menlo Ave","address2":"Suite 201","zip_code":"94025","city":"Menlo Park","state_code":"CA","country_code":"USA","latitude":37.445335,"longitude":-122.15833,"geopoint":{"type":"Point","coordinates":[-122.15833,37.445335]}},{"name":"StyleCaster","category_code":"web","total_money_raised":"$5M","description":"","address1":"49 W 27th St Uppr A","address2":"","zip_code":"10001-6936","city":"New York City","state_code":"NY","country_code":"USA","latitude":40.7450497,"longitude":-73.9900984,"geopoint":{"type":"Point","coordinates":[-73.9900984,40.7450497]}},{"name":"MindFuse","category_code":"games_video","total_money_raised":"$1M","description":null,"address1":null,"address2":null,"zip_code":null,"city":null,"state_code":null,"country_code":null,"latitude":null,"longitude":null,"geopoint":null},{"name":"SoftLayer","category_code":"network_hosting","total_money_raised":"$30M","description":"Corporate Headquarters","address1":"4849 Alpha Rd","address2":"","zip_code":"75244","city":"Dallas","state_code":"TX","country_code":"USA","latitude":33.017317,"longitude":-96.837682,"geopoint":{"type":"Point","coordinates":[-96.837682,33.017317]}},{"name":"Grain Management","category_code":"mobile","total_money_raised":"$20M","description":"Headquarters","address1":"100 N. Washington Blvd. Suite 201","address2":"","zip_code":"34236","city":"Sarasota","state_code":"FL","country_code":"USA","latitude":27.3372319,"longitude":-82.5309605,"geopoint":{"type":"Point","coordinates":[-82.5309605,27.3372319]}},{"name":"BuyVIP","category_code":"ecommerce","total_money_raised":"$20M","description":"Office","address1":"33. Edificio Atica 4 planta 2","address2":"28224 Pozuelo de Alarc\u00c3\u00b3n","zip_code":"","city":"Madrid","state_code":null,"country_code":"ESP","latitude":40.4167413,"longitude":-3.7032498,"geopoint":{"type":"Point","coordinates":[-3.7032498,40.4167413]}},{"name":"Antix Labs","category_code":"games_video","total_money_raised":"$3M","description":"","address1":"200 Brook Drive","address2":"Green Park, Reading","zip_code":"RG2 6UB","city":"Berkshire","state_code":null,"country_code":"GBR","latitude":null,"longitude":null,"geopoint":null}]